[
  {
    "longitude": 8.851043,
    "latitude": 47.8428,
    "ags": "08335001",
    "name": "Aach",
    "zipCode": "78267",
    "district": "Landkreis Konstanz",
    "state": "Baden-Württemberg",
    "population": 2296
  },
  {
    "longitude": 6.590527,
    "latitude": 49.789601,
    "ags": "07235001",
    "name": "Aach",
    "zipCode": "54298",
    "district": "Landkreis Trier-Saarburg",
    "state": "Rheinland-Pfalz",
    "population": 1099
  },
  {
    "longitude": 6.0848,
    "latitude": 50.773516,
    "ags": "05334002",
    "name": "Aachen",
    "zipCode": "52062",
    "district": "Städteregion Aachen",
    "state": "Nordrhein-Westfalen",
    "population": 247380
  },
  {
    "longitude": 6.0848,
    "latitude": 50.773516,
    "ags": "05334002",
    "name": "Aachen",
    "zipCode": "52064",
    "district": "Städteregion Aachen",
    "state": "Nordrhein-Westfalen",
    "population": 247380
  },
  {
    "longitude": 6.0848,
    "latitude": 50.773516,
    "ags": "05334002",
    "name": "Aachen",
    "zipCode": "52066",
    "district": "Städteregion Aachen",
    "state": "Nordrhein-Westfalen",
    "population": 247380
  },
  {
    "longitude": 6.0848,
    "latitude": 50.773516,
    "ags": "05334002",
    "name": "Aachen",
    "zipCode": "52068",
    "district": "Städteregion Aachen",
    "state": "Nordrhein-Westfalen",
    "population": 247380
  },
  {
    "longitude": 6.0848,
    "latitude": 50.773516,
    "ags": "05334002",
    "name": "Aachen",
    "zipCode": "52070",
    "district": "Städteregion Aachen",
    "state": "Nordrhein-Westfalen",
    "population": 247380
  },
  {
    "longitude": 6.0848,
    "latitude": 50.773516,
    "ags": "05334002",
    "name": "Aachen",
    "zipCode": "52072",
    "district": "Städteregion Aachen",
    "state": "Nordrhein-Westfalen",
    "population": 247380
  },
  {
    "longitude": 6.0848,
    "latitude": 50.773516,
    "ags": "05334002",
    "name": "Aachen",
    "zipCode": "52074",
    "district": "Städteregion Aachen",
    "state": "Nordrhein-Westfalen",
    "population": 247380
  },
  {
    "longitude": 6.0848,
    "latitude": 50.773516,
    "ags": "05334002",
    "name": "Aachen",
    "zipCode": "52076",
    "district": "Städteregion Aachen",
    "state": "Nordrhein-Westfalen",
    "population": 247380
  },
  {
    "longitude": 6.0848,
    "latitude": 50.773516,
    "ags": "05334002",
    "name": "Aachen",
    "zipCode": "52078",
    "district": "Städteregion Aachen",
    "state": "Nordrhein-Westfalen",
    "population": 247380
  },
  {
    "longitude": 6.0848,
    "latitude": 50.773516,
    "ags": "05334002",
    "name": "Aachen",
    "zipCode": "52080",
    "district": "Städteregion Aachen",
    "state": "Nordrhein-Westfalen",
    "population": 247380
  },
  {
    "longitude": 10.092337,
    "latitude": 48.835057,
    "ags": "08136088",
    "name": "Aalen",
    "zipCode": "73430",
    "district": "Ostalbkreis",
    "state": "Baden-Württemberg",
    "population": 68456
  },
  {
    "longitude": 10.092337,
    "latitude": 48.835057,
    "ags": "08136088",
    "name": "Aalen",
    "zipCode": "73431",
    "district": "Ostalbkreis",
    "state": "Baden-Württemberg",
    "population": 68456
  },
  {
    "longitude": 10.092337,
    "latitude": 48.835057,
    "ags": "08136088",
    "name": "Aalen",
    "zipCode": "73432",
    "district": "Ostalbkreis",
    "state": "Baden-Württemberg",
    "population": 68456
  },
  {
    "longitude": 10.092337,
    "latitude": 48.835057,
    "ags": "08136088",
    "name": "Aalen",
    "zipCode": "73433",
    "district": "Ostalbkreis",
    "state": "Baden-Württemberg",
    "population": 68456
  },
  {
    "longitude": 10.092337,
    "latitude": 48.835057,
    "ags": "08136088",
    "name": "Aalen",
    "zipCode": "73434",
    "district": "Ostalbkreis",
    "state": "Baden-Württemberg",
    "population": 68456
  },
  {
    "longitude": 8.076766,
    "latitude": 50.24602,
    "ags": "06439001",
    "name": "Aarbergen",
    "zipCode": "65326",
    "district": "Rheingau-Taunus-Kreis",
    "state": "Hessen",
    "population": 6151
  },
  {
    "longitude": 9.441789,
    "latitude": 54.067271,
    "ags": "01061001",
    "name": "Aasbüttel",
    "zipCode": "25560",
    "district": "Kreis Steinburg",
    "state": "Schleswig-Holstein",
    "population": 140
  },
  {
    "longitude": 10.963543,
    "latitude": 49.241445,
    "ags": "09576111",
    "name": "Abenberg",
    "zipCode": "91183",
    "district": "Landkreis Roth",
    "state": "Bayern",
    "population": 5511
  },
  {
    "longitude": 11.848622,
    "latitude": 48.81553,
    "ags": "09273111",
    "name": "Abensberg",
    "zipCode": "93326",
    "district": "Landkreis Kelheim",
    "state": "Bayern",
    "population": 13946
  },
  {
    "longitude": 7.100474,
    "latitude": 49.65142,
    "ags": "07134001",
    "name": "Abentheuer",
    "zipCode": "55767",
    "district": "Landkreis Birkenfeld",
    "state": "Rheinland-Pfalz",
    "population": 424
  },
  {
    "longitude": 10.881266,
    "latitude": 49.14455,
    "ags": "09577111",
    "name": "Absberg",
    "zipCode": "91720",
    "district": "Landkreis Weißenburg-Gunzenhausen",
    "state": "Bayern",
    "population": 1361
  },
  {
    "longitude": 9.290986,
    "latitude": 49.068456,
    "ags": "08125001",
    "name": "Abstatt",
    "zipCode": "74232",
    "district": "Landkreis Heilbronn",
    "state": "Baden-Württemberg",
    "population": 4803
  },
  {
    "longitude": 10.762472,
    "latitude": 51.259592,
    "ags": "16065001",
    "name": "Abtsbessingen",
    "zipCode": "99713",
    "district": "Kyffhäuserkreis",
    "state": "Thüringen",
    "population": 463
  },
  {
    "longitude": 10.002231,
    "latitude": 48.894913,
    "ags": "08136002",
    "name": "Abtsgmünd",
    "zipCode": "73453",
    "district": "Ostalbkreis",
    "state": "Baden-Württemberg",
    "population": 7417
  },
  {
    "longitude": 8.786237,
    "latitude": 49.544051,
    "ags": "06431001",
    "name": "Abtsteinach",
    "zipCode": "69518",
    "district": "Kreis Bergstraße",
    "state": "Hessen",
    "population": 2444
  },
  {
    "longitude": 10.372217,
    "latitude": 49.77071,
    "ags": "09675111",
    "name": "Abtswind",
    "zipCode": "97355",
    "district": "Landkreis Kitzingen",
    "state": "Bayern",
    "population": 862
  },
  {
    "longitude": 7.656343,
    "latitude": 49.744287,
    "ags": "07133001",
    "name": "Abtweiler",
    "zipCode": "55568",
    "district": "Landkreis Bad Kreuznach",
    "state": "Rheinland-Pfalz",
    "population": 197
  },
  {
    "longitude": 9.713856,
    "latitude": 47.615122,
    "ags": "08436001",
    "name": "Achberg",
    "zipCode": "88147",
    "district": "Landkreis Ravensburg",
    "state": "Baden-Württemberg",
    "population": 1743
  },
  {
    "longitude": 8.074429,
    "latitude": 48.628851,
    "ags": "08317001",
    "name": "Achern",
    "zipCode": "77855",
    "district": "Ortenaukreis",
    "state": "Baden-Württemberg",
    "population": 25630
  },
  {
    "longitude": 9.033031,
    "latitude": 53.01301,
    "ags": "03361001",
    "name": "Achim",
    "zipCode": "28832",
    "district": "Landkreis Verden",
    "state": "Niedersachsen",
    "population": 31911
  },
  {
    "longitude": 12.935494,
    "latitude": 48.971237,
    "ags": "09276111",
    "name": "Achslach",
    "zipCode": "94250",
    "district": "Landkreis Regen",
    "state": "Bayern",
    "population": 921
  },
  {
    "longitude": 9.898085,
    "latitude": 48.258983,
    "ags": "08426001",
    "name": "Achstetten",
    "zipCode": "88480",
    "district": "Landkreis Biberach",
    "state": "Baden-Württemberg",
    "population": 4920
  },
  {
    "longitude": 7.072376,
    "latitude": 50.369975,
    "ags": "07137001",
    "name": "Acht",
    "zipCode": "56729",
    "district": "Landkreis Mayen-Koblenz",
    "state": "Rheinland-Pfalz",
    "population": 76
  },
  {
    "longitude": 7.090023,
    "latitude": 49.624529,
    "ags": "07134002",
    "name": "Achtelsbach",
    "zipCode": "55767",
    "district": "Landkreis Birkenfeld",
    "state": "Rheinland-Pfalz",
    "population": 400
  },
  {
    "longitude": 9.96576,
    "latitude": 54.313379,
    "ags": "01058001",
    "name": "Achterwehr",
    "zipCode": "24239",
    "district": "Kreis Rendsburg-Eckernförde",
    "state": "Schleswig-Holstein",
    "population": 1030
  },
  {
    "longitude": 9.028319,
    "latitude": 54.788981,
    "ags": "01054001",
    "name": "Achtrup",
    "zipCode": "25917",
    "district": "Kreis Nordfriesland",
    "state": "Schleswig-Holstein",
    "population": 1488
  },
  {
    "longitude": 9.598555,
    "latitude": 48.762533,
    "ags": "08117001",
    "name": "Adelberg",
    "zipCode": "73099",
    "district": "Landkreis Göppingen",
    "state": "Baden-Württemberg",
    "population": 1997
  },
  {
    "longitude": 9.756785,
    "latitude": 51.580221,
    "ags": "03159001",
    "name": "Adelebsen",
    "zipCode": "37139",
    "district": "Landkreis Göttingen",
    "state": "Niedersachsen",
    "population": 6294
  },
  {
    "longitude": 10.059931,
    "latitude": 52.565363,
    "ags": "03351001",
    "name": "Adelheidsdorf",
    "zipCode": "29352",
    "district": "Landkreis Celle",
    "state": "Niedersachsen",
    "population": 2640
  },
  {
    "longitude": 10.003628,
    "latitude": 48.954324,
    "ags": "08136003",
    "name": "Adelmannsfelden",
    "zipCode": "73486",
    "district": "Ostalbkreis",
    "state": "Baden-Württemberg",
    "population": 1688
  },
  {
    "longitude": 11.223138,
    "latitude": 48.83914,
    "ags": "09176111",
    "name": "Adelschlag",
    "zipCode": "85111",
    "district": "Landkreis Eichstätt",
    "state": "Bayern",
    "population": 3006
  },
  {
    "longitude": 10.892848,
    "latitude": 49.714781,
    "ags": "09572111",
    "name": "Adelsdorf",
    "zipCode": "91325",
    "district": "Landkreis Erlangen-Höchstadt",
    "state": "Bayern",
    "population": 8366
  },
  {
    "longitude": 9.391601,
    "latitude": 49.401957,
    "ags": "08225001",
    "name": "Adelsheim",
    "zipCode": "74740",
    "district": "Neckar-Odenwald-Kreis",
    "state": "Baden-Württemberg",
    "population": 4973
  },
  {
    "longitude": 10.175,
    "latitude": 49.439981,
    "ags": "09571111",
    "name": "Adelshofen",
    "zipCode": "91587",
    "district": "Landkreis Ansbach",
    "state": "Bayern",
    "population": 955
  },
  {
    "longitude": 11.116705,
    "latitude": 48.18313,
    "ags": "09179111",
    "name": "Adelshofen",
    "zipCode": "82276",
    "district": "Landkreis Fürstenfeldbruck",
    "state": "Bayern",
    "population": 1713
  },
  {
    "longitude": 10.719444,
    "latitude": 48.425522,
    "ags": "09772111",
    "name": "Adelsried",
    "zipCode": "86477",
    "district": "Landkreis Augsburg",
    "state": "Bayern",
    "population": 2357
  },
  {
    "longitude": 11.137667,
    "latitude": 48.35707,
    "ags": "09771111",
    "name": "Adelzhausen",
    "zipCode": "86559",
    "district": "Landkreis Aichach-Friedberg",
    "state": "Bayern",
    "population": 1705
  },
  {
    "longitude": 6.930224,
    "latitude": 50.382256,
    "ags": "07131001",
    "name": "Adenau",
    "zipCode": "53518",
    "district": "Landkreis Ahrweiler",
    "state": "Rheinland-Pfalz",
    "population": 2962
  },
  {
    "longitude": 7.647541,
    "latitude": 49.669273,
    "ags": "07336001",
    "name": "Adenbach",
    "zipCode": "67742",
    "district": "Landkreis Kusel",
    "state": "Rheinland-Pfalz",
    "population": 147
  },
  {
    "longitude": 10.450974,
    "latitude": 52.379328,
    "ags": "03151001",
    "name": "Adenbüttel",
    "zipCode": "38528",
    "district": "Landkreis Gifhorn",
    "state": "Niedersachsen",
    "population": 1765
  },
  {
    "longitude": 10.443754,
    "latitude": 53.287818,
    "ags": "03355001",
    "name": "Adendorf",
    "zipCode": "21365",
    "district": "Landkreis Lüneburg",
    "state": "Niedersachsen",
    "population": 10754
  },
  {
    "longitude": 12.263172,
    "latitude": 48.546186,
    "ags": "09274111",
    "name": "Adlkofen",
    "zipCode": "84166",
    "district": "Landkreis Landshut",
    "state": "Bayern",
    "population": 4321
  },
  {
    "longitude": 11.984106,
    "latitude": 54.111554,
    "ags": "13072001",
    "name": "Admannshagen-Bargeshagen",
    "zipCode": "18211",
    "district": "Landkreis Rostock",
    "state": "Mecklenburg-Vorpommern",
    "population": 2880
  },
  {
    "longitude": 12.256069,
    "latitude": 50.320622,
    "ags": "14523010",
    "name": "Adorf/Vogtland",
    "zipCode": "08626",
    "district": "Vogtlandkreis",
    "state": "Sachsen",
    "population": 4919
  },
  {
    "longitude": 9.289846,
    "latitude": 53.970611,
    "ags": "01061002",
    "name": "Aebtissinwisch",
    "zipCode": "25572",
    "district": "Kreis Steinburg",
    "state": "Schleswig-Holstein",
    "population": 57
  },
  {
    "longitude": 9.261633,
    "latitude": 52.046638,
    "ags": "03252001",
    "name": "Aerzen",
    "zipCode": "31855",
    "district": "Landkreis Hameln-Pyrmont",
    "state": "Niedersachsen",
    "population": 10510
  },
  {
    "longitude": 9.323455,
    "latitude": 48.923115,
    "ags": "08118001",
    "name": "Affalterbach",
    "zipCode": "71563",
    "district": "Landkreis Ludwigsburg",
    "state": "Baden-Württemberg",
    "population": 4518
  },
  {
    "longitude": 10.981809,
    "latitude": 48.457486,
    "ags": "09771112",
    "name": "Affing",
    "zipCode": "86444",
    "district": "Landkreis Aichach-Friedberg",
    "state": "Bayern",
    "population": 5476
  },
  {
    "longitude": 8.87991,
    "latitude": 52.782963,
    "ags": "03251001",
    "name": "Affinghausen",
    "zipCode": "27257",
    "district": "Landkreis Diepholz",
    "state": "Niedersachsen",
    "population": 859
  },
  {
    "longitude": 6.153528,
    "latitude": 50.013966,
    "ags": "07232001",
    "name": "Affler",
    "zipCode": "54689",
    "district": "Eifelkreis Bitburg-Prüm",
    "state": "Rheinland-Pfalz",
    "population": 29
  },
  {
    "longitude": 9.528825,
    "latitude": 53.562845,
    "ags": "03359001",
    "name": "Agathenburg",
    "zipCode": "21684",
    "district": "Landkreis Stade",
    "state": "Niedersachsen",
    "population": 1236
  },
  {
    "longitude": 9.436454,
    "latitude": 54.01935,
    "ags": "01061003",
    "name": "Agethorst",
    "zipCode": "25560",
    "district": "Kreis Steinburg",
    "state": "Schleswig-Holstein",
    "population": 191
  },
  {
    "longitude": 8.989348,
    "latitude": 49.35493,
    "ags": "08225002",
    "name": "Aglasterhausen",
    "zipCode": "74858",
    "district": "Neckar-Odenwald-Kreis",
    "state": "Baden-Württemberg",
    "population": 4902
  },
  {
    "longitude": 12.463766,
    "latitude": 48.527421,
    "ags": "09274112",
    "name": "Aham",
    "zipCode": "84168",
    "district": "Landkreis Landshut",
    "state": "Bayern",
    "population": 1912
  },
  {
    "longitude": 7.005037,
    "latitude": 52.076104,
    "ags": "05554004",
    "name": "Ahaus",
    "zipCode": "48683",
    "district": "Kreis Borken",
    "state": "Nordrhein-Westfalen",
    "population": 39223
  },
  {
    "longitude": 9.313313,
    "latitude": 53.062929,
    "ags": "03357001",
    "name": "Ahausen",
    "zipCode": "27367",
    "district": "Landkreis Rotenburg (Wümme)",
    "state": "Niedersachsen",
    "population": 1873
  },
  {
    "longitude": 14.185341,
    "latitude": 53.669524,
    "ags": "13075001",
    "name": "Ahlbeck",
    "zipCode": "17375",
    "district": "Landkreis Vorpommern-Greifswald",
    "state": "Mecklenburg-Vorpommern",
    "population": 620
  },
  {
    "longitude": 9.552615,
    "latitude": 52.759772,
    "ags": "03358001",
    "name": "Ahlden",
    "zipCode": "29693",
    "district": "Landkreis Heidekreis",
    "state": "Niedersachsen",
    "population": 1526
  },
  {
    "longitude": 9.698907,
    "latitude": 54.398725,
    "ags": "01058175",
    "name": "Ahlefeld-Bistensee",
    "zipCode": "24358",
    "district": "Kreis Rendsburg-Eckernförde",
    "state": "Schleswig-Holstein",
    "population": 475
  },
  {
    "longitude": 7.889882,
    "latitude": 51.762985,
    "ags": "05570004",
    "name": "Ahlen",
    "zipCode": "59227",
    "district": "Kreis Warendorf",
    "state": "Nordrhein-Westfalen",
    "population": 52582
  },
  {
    "longitude": 7.889882,
    "latitude": 51.762985,
    "ags": "05570004",
    "name": "Ahlen",
    "zipCode": "59229",
    "district": "Kreis Warendorf",
    "state": "Nordrhein-Westfalen",
    "population": 52582
  },
  {
    "longitude": 9.451981,
    "latitude": 53.405314,
    "ags": "03359002",
    "name": "Ahlerstedt",
    "zipCode": "21702",
    "district": "Landkreis Stade",
    "state": "Niedersachsen",
    "population": 5367
  },
  {
    "longitude": 11.469898,
    "latitude": 51.543838,
    "ags": "15087010",
    "name": "Ahlsdorf",
    "zipCode": "06313",
    "district": "Landkreis Mansfeld-Südharz",
    "state": "Sachsen-Anhalt",
    "population": 1570
  },
  {
    "longitude": 10.686759,
    "latitude": 50.527757,
    "ags": "16069001",
    "name": "Ahlstädt",
    "zipCode": "98553",
    "district": "Landkreis Hildburghausen",
    "state": "Thüringen",
    "population": 126
  },
  {
    "longitude": 9.393523,
    "latitude": 51.366434,
    "ags": "06633001",
    "name": "Ahnatal",
    "zipCode": "34292",
    "district": "Landkreis Kassel",
    "state": "Hessen",
    "population": 7960
  },
  {
    "longitude": 9.730965,
    "latitude": 54.701421,
    "ags": "01059102",
    "name": "Ahneby",
    "zipCode": "24996",
    "district": "Kreis Schleswig-Flensburg",
    "state": "Schleswig-Holstein",
    "population": 193
  },
  {
    "longitude": 10.2848,
    "latitude": 52.611286,
    "ags": "03351002",
    "name": "Ahnsbeck",
    "zipCode": "29353",
    "district": "Landkreis Celle",
    "state": "Niedersachsen",
    "population": 1617
  },
  {
    "longitude": 9.101227,
    "latitude": 52.254661,
    "ags": "03257001",
    "name": "Ahnsen",
    "zipCode": "31708",
    "district": "Landkreis Schaumburg",
    "state": "Niedersachsen",
    "population": 1028
  },
  {
    "longitude": 12.470108,
    "latitude": 48.942029,
    "ags": "09278112",
    "name": "Aholfing",
    "zipCode": "94345",
    "district": "Landkreis Straubing-Bogen",
    "state": "Bayern",
    "population": 1828
  },
  {
    "longitude": 12.910863,
    "latitude": 48.736468,
    "ags": "09271111",
    "name": "Aholming",
    "zipCode": "94527",
    "district": "Landkreis Deggendorf",
    "state": "Bayern",
    "population": 2238
  },
  {
    "longitude": 9.540368,
    "latitude": 49.501528,
    "ags": "08128138",
    "name": "Ahorn",
    "zipCode": "74744",
    "district": "Main-Tauber-Kreis",
    "state": "Baden-Württemberg",
    "population": 2244
  },
  {
    "longitude": 10.952243,
    "latitude": 50.236693,
    "ags": "09473112",
    "name": "Ahorn",
    "zipCode": "96482",
    "district": "Landkreis Coburg",
    "state": "Bayern",
    "population": 4244
  },
  {
    "longitude": 11.401762,
    "latitude": 49.833646,
    "ags": "09472111",
    "name": "Ahorntal",
    "zipCode": "95491",
    "district": "Landkreis Bayreuth",
    "state": "Bayern",
    "population": 2162
  },
  {
    "longitude": 6.98451,
    "latitude": 50.483845,
    "ags": "07131002",
    "name": "Ahrbrück",
    "zipCode": "53506",
    "district": "Landkreis Ahrweiler",
    "state": "Rheinland-Pfalz",
    "population": 1185
  },
  {
    "longitude": 10.573059,
    "latitude": 54.011094,
    "ags": "01055001",
    "name": "Ahrensbök",
    "zipCode": "23623",
    "district": "Kreis Ostholstein",
    "state": "Schleswig-Holstein",
    "population": 8290
  },
  {
    "longitude": 10.239705,
    "latitude": 53.67575,
    "ags": "01062001",
    "name": "Ahrensburg",
    "zipCode": "22926",
    "district": "Kreis Stormarn",
    "state": "Schleswig-Holstein",
    "population": 33472
  },
  {
    "longitude": 13.57961,
    "latitude": 52.576115,
    "ags": "12060005",
    "name": "Ahrensfelde",
    "zipCode": "16356",
    "district": "Landkreis Barnim",
    "state": "Brandenburg",
    "population": 13543
  },
  {
    "longitude": 12.600892,
    "latitude": 54.223811,
    "ags": "13073001",
    "name": "Ahrenshagen-Daskow",
    "zipCode": "18320",
    "district": "Landkreis Vorpommern-Rügen",
    "state": "Mecklenburg-Vorpommern",
    "population": 2118
  },
  {
    "longitude": 9.068097,
    "latitude": 54.559394,
    "ags": "01054002",
    "name": "Ahrenshöft",
    "zipCode": "25853",
    "district": "Kreis Nordfriesland",
    "state": "Schleswig-Holstein",
    "population": 516
  },
  {
    "longitude": 12.416249,
    "latitude": 54.377008,
    "ags": "13073002",
    "name": "Ahrenshoop",
    "zipCode": "18347",
    "district": "Landkreis Vorpommern-Rügen",
    "state": "Mecklenburg-Vorpommern",
    "population": 622
  },
  {
    "longitude": 9.206895,
    "latitude": 54.531254,
    "ags": "01054003",
    "name": "Ahrenviöl",
    "zipCode": "25885",
    "district": "Kreis Nordfriesland",
    "state": "Schleswig-Holstein",
    "population": 521
  },
  {
    "longitude": 9.274084,
    "latitude": 54.534607,
    "ags": "01054004",
    "name": "Ahrenviölfeld",
    "zipCode": "24896",
    "district": "Kreis Nordfriesland",
    "state": "Schleswig-Holstein",
    "population": 220
  },
  {
    "longitude": 9.274084,
    "latitude": 54.534607,
    "ags": "01054004",
    "name": "Ahrenviölfeld",
    "zipCode": "25885",
    "district": "Kreis Nordfriesland",
    "state": "Schleswig-Holstein",
    "population": 220
  },
  {
    "longitude": 11.133655,
    "latitude": 48.461439,
    "ags": "09771113",
    "name": "Aichach",
    "zipCode": "86551",
    "district": "Landkreis Aichach-Friedberg",
    "state": "Bayern",
    "population": 21434
  },
  {
    "longitude": 13.291981,
    "latitude": 48.674871,
    "ags": "09275111",
    "name": "Aicha vorm Wald",
    "zipCode": "94529",
    "district": "Landkreis Passau",
    "state": "Bayern",
    "population": 2401
  },
  {
    "longitude": 9.567184,
    "latitude": 48.638498,
    "ags": "08117002",
    "name": "Aichelberg",
    "zipCode": "73101",
    "district": "Landkreis Göppingen",
    "state": "Baden-Württemberg",
    "population": 1342
  },
  {
    "longitude": 10.53914,
    "latitude": 48.227088,
    "ags": "09774166",
    "name": "Aichen",
    "zipCode": "86479",
    "district": "Landkreis Günzburg",
    "state": "Bayern",
    "population": 1154
  },
  {
    "longitude": 8.398748,
    "latitude": 48.269444,
    "ags": "08325001",
    "name": "Aichhalden",
    "zipCode": "78733",
    "district": "Landkreis Rottweil",
    "state": "Baden-Württemberg",
    "population": 4141
  },
  {
    "longitude": 10.08067,
    "latitude": 47.892919,
    "ags": "08436003",
    "name": "Aichstetten",
    "zipCode": "88317",
    "district": "Landkreis Ravensburg",
    "state": "Baden-Württemberg",
    "population": 2806
  },
  {
    "longitude": 9.236006,
    "latitude": 48.621,
    "ags": "08116081",
    "name": "Aichtal",
    "zipCode": "72631",
    "district": "Landkreis Esslingen",
    "state": "Baden-Württemberg",
    "population": 9901
  },
  {
    "longitude": 9.379855,
    "latitude": 48.75899,
    "ags": "08116076",
    "name": "Aichwald",
    "zipCode": "73773",
    "district": "Landkreis Esslingen",
    "state": "Baden-Württemberg",
    "population": 7559
  },
  {
    "longitude": 13.089153,
    "latitude": 48.567398,
    "ags": "09275112",
    "name": "Aidenbach",
    "zipCode": "94501",
    "district": "Landkreis Passau",
    "state": "Bayern",
    "population": 2948
  },
  {
    "longitude": 10.436956,
    "latitude": 50.154108,
    "ags": "09674111",
    "name": "Aidhausen",
    "zipCode": "97491",
    "district": "Landkreis Haßberge",
    "state": "Bayern",
    "population": 1689
  },
  {
    "longitude": 8.896991,
    "latitude": 48.677969,
    "ags": "08115001",
    "name": "Aidlingen",
    "zipCode": "71134",
    "district": "Landkreis Böblingen",
    "state": "Baden-Württemberg",
    "population": 9024
  },
  {
    "longitude": 11.707639,
    "latitude": 48.692993,
    "ags": "09273113",
    "name": "Aiglsbach",
    "zipCode": "84089",
    "district": "Landkreis Kelheim",
    "state": "Bayern",
    "population": 1768
  },
  {
    "longitude": 7.940135,
    "latitude": 50.59846,
    "ags": "07143200",
    "name": "Ailertchen",
    "zipCode": "56459",
    "district": "Westerwaldkreis",
    "state": "Rheinland-Pfalz",
    "population": 591
  },
  {
    "longitude": 10.953041,
    "latitude": 48.513814,
    "ags": "09771114",
    "name": "Aindling",
    "zipCode": "86447",
    "district": "Landkreis Aichach-Friedberg",
    "state": "Bayern",
    "population": 4458
  },
  {
    "longitude": 12.943264,
    "latitude": 47.816451,
    "ags": "09172111",
    "name": "Ainring",
    "zipCode": "83404",
    "district": "Landkreis Berchtesgadener Land",
    "state": "Bayern",
    "population": 9908
  },
  {
    "longitude": 10.455887,
    "latitude": 48.506631,
    "ags": "09773111",
    "name": "Aislingen",
    "zipCode": "89344",
    "district": "Landkreis Dillingen an der Donau",
    "state": "Bayern",
    "population": 1299
  },
  {
    "longitude": 12.62018,
    "latitude": 48.84583,
    "ags": "09278113",
    "name": "Aiterhofen",
    "zipCode": "94330",
    "district": "Landkreis Straubing-Bogen",
    "state": "Bayern",
    "population": 3339
  },
  {
    "longitude": 7.894621,
    "latitude": 47.803346,
    "ags": "08336004",
    "name": "Aitern",
    "zipCode": "79677",
    "district": "Landkreis Lörrach",
    "state": "Baden-Württemberg",
    "population": 534
  },
  {
    "longitude": 10.083889,
    "latitude": 47.940739,
    "ags": "08436004",
    "name": "Aitrach",
    "zipCode": "88319",
    "district": "Landkreis Ravensburg",
    "state": "Baden-Württemberg",
    "population": 2726
  },
  {
    "longitude": 10.534541,
    "latitude": 47.817575,
    "ags": "09777111",
    "name": "Aitrang",
    "zipCode": "87648",
    "district": "Landkreis Ostallgäu",
    "state": "Bayern",
    "population": 2037
  },
  {
    "longitude": 12.043952,
    "latitude": 51.852549,
    "ags": "15082005",
    "name": "Aken (Elbe)",
    "zipCode": "06385",
    "district": "Landkreis Anhalt-Bitterfeld",
    "state": "Sachsen-Anhalt",
    "population": 7567
  },
  {
    "longitude": 12.043952,
    "latitude": 51.852549,
    "ags": "15082005",
    "name": "Aken (Elbe)",
    "zipCode": "06386",
    "district": "Landkreis Anhalt-Bitterfeld",
    "state": "Sachsen-Anhalt",
    "population": 7567
  },
  {
    "longitude": 11.698147,
    "latitude": 52.923824,
    "ags": "15090003",
    "name": "Aland",
    "zipCode": "39615",
    "district": "Landkreis Stendal",
    "state": "Sachsen-Anhalt",
    "population": 1379
  },
  {
    "longitude": 12.110817,
    "latitude": 48.1108,
    "ags": "09187186",
    "name": "Albaching",
    "zipCode": "83544",
    "district": "Landkreis Rosenheim",
    "state": "Bayern",
    "population": 1757
  },
  {
    "longitude": 8.130079,
    "latitude": 47.591149,
    "ags": "08337002",
    "name": "Albbruck",
    "zipCode": "79774",
    "district": "Landkreis Waldshut",
    "state": "Baden-Württemberg",
    "population": 7335
  },
  {
    "longitude": 9.283995,
    "latitude": 54.146557,
    "ags": "01051001",
    "name": "Albersdorf",
    "zipCode": "25767",
    "district": "Kreis Dithmarschen",
    "state": "Schleswig-Holstein",
    "population": 3670
  },
  {
    "longitude": 11.773904,
    "latitude": 50.902843,
    "ags": "16074001",
    "name": "Albersdorf",
    "zipCode": "07646",
    "district": "Saale-Holzland-Kreis",
    "state": "Thüringen",
    "population": 288
  },
  {
    "longitude": 9.564885,
    "latitude": 48.691161,
    "ags": "08117003",
    "name": "Albershausen",
    "zipCode": "73095",
    "district": "Landkreis Göppingen",
    "state": "Baden-Württemberg",
    "population": 4385
  },
  {
    "longitude": 8.028507,
    "latitude": 49.219042,
    "ags": "07337001",
    "name": "Albersweiler",
    "zipCode": "76857",
    "district": "Landkreis Südliche Weinstraße",
    "state": "Rheinland-Pfalz",
    "population": 1935
  },
  {
    "longitude": 10.158976,
    "latitude": 49.770836,
    "ags": "09675112",
    "name": "Albertshofen",
    "zipCode": "97320",
    "district": "Landkreis Kitzingen",
    "state": "Bayern",
    "population": 2315
  },
  {
    "longitude": 7.330666,
    "latitude": 49.516477,
    "ags": "07336002",
    "name": "Albessen",
    "zipCode": "66871",
    "district": "Landkreis Kusel",
    "state": "Rheinland-Pfalz",
    "population": 139
  },
  {
    "longitude": 8.12235,
    "latitude": 49.773804,
    "ags": "07331001",
    "name": "Albig",
    "zipCode": "55234",
    "district": "Landkreis Alzey-Worms",
    "state": "Rheinland-Pfalz",
    "population": 1602
  },
  {
    "longitude": 8.095715,
    "latitude": 49.649493,
    "ags": "07333001",
    "name": "Albisheim (Pfrimm)",
    "zipCode": "67308",
    "district": "Donnersbergkreis",
    "state": "Rheinland-Pfalz",
    "population": 1747
  },
  {
    "longitude": 10.694451,
    "latitude": 53.679957,
    "ags": "01053001",
    "name": "Albsfelde",
    "zipCode": "23909",
    "district": "Kreis Herzogtum Lauenburg",
    "state": "Schleswig-Holstein",
    "population": 73
  },
  {
    "longitude": 9.026328,
    "latitude": 48.214156,
    "ags": "08417079",
    "name": "Albstadt",
    "zipCode": "72458",
    "district": "Zollernalbkreis",
    "state": "Baden-Württemberg",
    "population": 45327
  },
  {
    "longitude": 9.026328,
    "latitude": 48.214156,
    "ags": "08417079",
    "name": "Albstadt",
    "zipCode": "72459",
    "district": "Zollernalbkreis",
    "state": "Baden-Württemberg",
    "population": 45327
  },
  {
    "longitude": 9.026328,
    "latitude": 48.214156,
    "ags": "08417079",
    "name": "Albstadt",
    "zipCode": "72461",
    "district": "Zollernalbkreis",
    "state": "Baden-Württemberg",
    "population": 45327
  },
  {
    "longitude": 6.281953,
    "latitude": 50.895696,
    "ags": "05358004",
    "name": "Aldenhoven",
    "zipCode": "52457",
    "district": "Kreis Düren",
    "state": "Nordrhein-Westfalen",
    "population": 13807
  },
  {
    "longitude": 13.086094,
    "latitude": 48.589538,
    "ags": "09275114",
    "name": "Aldersbach",
    "zipCode": "94501",
    "district": "Landkreis Passau",
    "state": "Bayern",
    "population": 4273
  },
  {
    "longitude": 8.702513,
    "latitude": 48.094541,
    "ags": "08327002",
    "name": "Aldingen",
    "zipCode": "78554",
    "district": "Landkreis Tuttlingen",
    "state": "Baden-Württemberg",
    "population": 7555
  },
  {
    "longitude": 10.616329,
    "latitude": 48.84666,
    "ags": "09779111",
    "name": "Alerheim",
    "zipCode": "86733",
    "district": "Landkreis Donau-Ries",
    "state": "Bayern",
    "population": 1637
  },
  {
    "longitude": 10.866072,
    "latitude": 49.046568,
    "ags": "09577113",
    "name": "Alesheim",
    "zipCode": "91793",
    "district": "Landkreis Weißenburg-Gunzenhausen",
    "state": "Bayern",
    "population": 953
  },
  {
    "longitude": 10.389531,
    "latitude": 48.1998,
    "ags": "09774111",
    "name": "Aletshausen",
    "zipCode": "86480",
    "district": "Landkreis Günzburg",
    "state": "Bayern",
    "population": 1172
  },
  {
    "longitude": 7.126305,
    "latitude": 50.056818,
    "ags": "07135001",
    "name": "Alf",
    "zipCode": "56859",
    "district": "Landkreis Cochem-Zell",
    "state": "Rheinland-Pfalz",
    "population": 843
  },
  {
    "longitude": 9.718908,
    "latitude": 48.843821,
    "ags": "08119001",
    "name": "Alfdorf",
    "zipCode": "73553",
    "district": "Rems-Murr-Kreis",
    "state": "Baden-Württemberg",
    "population": 7085
  },
  {
    "longitude": 9.718908,
    "latitude": 48.843821,
    "ags": "08119001",
    "name": "Alfdorf",
    "zipCode": "73655",
    "district": "Rems-Murr-Kreis",
    "state": "Baden-Württemberg",
    "population": 7085
  },
  {
    "longitude": 11.543979,
    "latitude": 49.428806,
    "ags": "09574111",
    "name": "Alfeld",
    "zipCode": "91236",
    "district": "Landkreis Nürnberger Land",
    "state": "Bayern",
    "population": 1076
  },
  {
    "longitude": 9.825738,
    "latitude": 51.987221,
    "ags": "03254002",
    "name": "Alfeld (Leine)",
    "zipCode": "31061",
    "district": "Landkreis Hildesheim",
    "state": "Niedersachsen",
    "population": 18626
  },
  {
    "longitude": 7.953473,
    "latitude": 52.503379,
    "ags": "03459001",
    "name": "Alfhausen",
    "zipCode": "49594",
    "district": "Landkreis Osnabrück",
    "state": "Niedersachsen",
    "population": 3921
  },
  {
    "longitude": 7.040537,
    "latitude": 50.177082,
    "ags": "07135002",
    "name": "Alflen",
    "zipCode": "56828",
    "district": "Landkreis Cochem-Zell",
    "state": "Rheinland-Pfalz",
    "population": 809
  },
  {
    "longitude": 9.067399,
    "latitude": 53.548503,
    "ags": "03357002",
    "name": "Alfstedt",
    "zipCode": "27432",
    "district": "Landkreis Rotenburg (Wümme)",
    "state": "Niedersachsen",
    "population": 866
  },
  {
    "longitude": 7.013472,
    "latitude": 50.736995,
    "ags": "05382004",
    "name": "Alfter",
    "zipCode": "53347",
    "district": "Rhein-Sieg-Kreis",
    "state": "Nordrhein-Westfalen",
    "population": 23622
  },
  {
    "longitude": 9.970613,
    "latitude": 52.253687,
    "ags": "03254003",
    "name": "Algermissen",
    "zipCode": "31191",
    "district": "Landkreis Hildesheim",
    "state": "Niedersachsen",
    "population": 7874
  },
  {
    "longitude": 9.66857,
    "latitude": 51.024756,
    "ags": "06632001",
    "name": "Alheim",
    "zipCode": "36211",
    "district": "Landkreis Hersfeld-Rotenburg",
    "state": "Hessen",
    "population": 4913
  },
  {
    "longitude": 7.448283,
    "latitude": 50.248557,
    "ags": "07137201",
    "name": "Alken",
    "zipCode": "56332",
    "district": "Landkreis Mayen-Koblenz",
    "state": "Rheinland-Pfalz",
    "population": 666
  },
  {
    "longitude": 11.04076,
    "latitude": 50.848169,
    "ags": "16070001",
    "name": "Alkersleben",
    "zipCode": "99310",
    "district": "Ilm-Kreis",
    "state": "Thüringen",
    "population": 310
  },
  {
    "longitude": 8.511244,
    "latitude": 54.708245,
    "ags": "01054005",
    "name": "Alkersum",
    "zipCode": "25938",
    "district": "Kreis Nordfriesland",
    "state": "Schleswig-Holstein",
    "population": 410
  },
  {
    "longitude": 7.167563,
    "latitude": 49.755712,
    "ags": "07134003",
    "name": "Allenbach",
    "zipCode": "55758",
    "district": "Landkreis Birkenfeld",
    "state": "Rheinland-Pfalz",
    "population": 629
  },
  {
    "longitude": 8.670062,
    "latitude": 51.026336,
    "ags": "06635001",
    "name": "Allendorf",
    "zipCode": "35108",
    "district": "Landkreis Waldeck-Frankenberg",
    "state": "Hessen",
    "population": 5568
  },
  {
    "longitude": 7.998345,
    "latitude": 50.26803,
    "ags": "07141001",
    "name": "Allendorf",
    "zipCode": "56370",
    "district": "Rhein-Lahn-Kreis",
    "state": "Rheinland-Pfalz",
    "population": 621
  },
  {
    "longitude": 11.158647,
    "latitude": 50.655688,
    "ags": "16073001",
    "name": "Allendorf",
    "zipCode": "07426",
    "district": "Landkreis Saalfeld-Rudolstadt",
    "state": "Thüringen",
    "population": 341
  },
  {
    "longitude": 8.822706,
    "latitude": 50.677251,
    "ags": "06531001",
    "name": "Allendorf (Lumda)",
    "zipCode": "35469",
    "district": "Landkreis Gießen",
    "state": "Hessen",
    "population": 4090
  },
  {
    "longitude": 7.668777,
    "latitude": 49.866829,
    "ags": "07133002",
    "name": "Allenfeld",
    "zipCode": "55595",
    "district": "Landkreis Bad Kreuznach",
    "state": "Rheinland-Pfalz",
    "population": 204
  },
  {
    "longitude": 9.070194,
    "latitude": 47.715742,
    "ags": "08335002",
    "name": "Allensbach",
    "zipCode": "78476",
    "district": "Landkreis Konstanz",
    "state": "Baden-Württemberg",
    "population": 7087
  },
  {
    "longitude": 11.236588,
    "latitude": 49.251415,
    "ags": "09576113",
    "name": "Allersberg",
    "zipCode": "90584",
    "district": "Landkreis Roth",
    "state": "Bayern",
    "population": 8337
  },
  {
    "longitude": 11.598275,
    "latitude": 48.429879,
    "ags": "09178113",
    "name": "Allershausen",
    "zipCode": "85391",
    "district": "Landkreis Freising",
    "state": "Bayern",
    "population": 5847
  },
  {
    "longitude": 9.621543,
    "latitude": 48.102679,
    "ags": "08426005",
    "name": "Alleshausen",
    "zipCode": "88422",
    "district": "Landkreis Biberach",
    "state": "Baden-Württemberg",
    "population": 524
  },
  {
    "longitude": 11.299015,
    "latitude": 48.141556,
    "ags": "09179113",
    "name": "Alling",
    "zipCode": "82239",
    "district": "Landkreis Fürstenfeldbruck",
    "state": "Bayern",
    "population": 3903
  },
  {
    "longitude": 10.804495,
    "latitude": 48.612811,
    "ags": "09772114",
    "name": "Allmannshofen",
    "zipCode": "86695",
    "district": "Landkreis Augsburg",
    "state": "Bayern",
    "population": 902
  },
  {
    "longitude": 9.593584,
    "latitude": 48.028386,
    "ags": "08426006",
    "name": "Allmannsweiler",
    "zipCode": "88348",
    "district": "Landkreis Biberach",
    "state": "Baden-Württemberg",
    "population": 304
  },
  {
    "longitude": 9.72429,
    "latitude": 48.330714,
    "ags": "08425002",
    "name": "Allmendingen",
    "zipCode": "89604",
    "district": "Alb-Donau-Kreis",
    "state": "Baden-Württemberg",
    "population": 4439
  },
  {
    "longitude": 9.467228,
    "latitude": 48.906963,
    "ags": "08119003",
    "name": "Allmersbach im Tal",
    "zipCode": "71573",
    "district": "Rems-Murr-Kreis",
    "state": "Baden-Württemberg",
    "population": 4840
  },
  {
    "longitude": 11.384492,
    "latitude": 51.401795,
    "ags": "15087015",
    "name": "Allstedt",
    "zipCode": "06542",
    "district": "Landkreis Mansfeld-Südharz",
    "state": "Sachsen-Anhalt",
    "population": 7745
  },
  {
    "longitude": 9.015622,
    "latitude": 54.581075,
    "ags": "01054006",
    "name": "Almdorf",
    "zipCode": "25821",
    "district": "Kreis Nordfriesland",
    "state": "Schleswig-Holstein",
    "population": 561
  },
  {
    "longitude": 7.629577,
    "latitude": 50.674395,
    "ags": "07132001",
    "name": "Almersbach",
    "zipCode": "57610",
    "district": "Landkreis Altenkirchen",
    "state": "Rheinland-Pfalz",
    "population": 407
  },
  {
    "longitude": 6.511241,
    "latitude": 51.575134,
    "ags": "05170004",
    "name": "Alpen",
    "zipCode": "46519",
    "district": "Kreis Wesel",
    "state": "Nordrhein-Westfalen",
    "population": 12463
  },
  {
    "longitude": 7.869988,
    "latitude": 50.631178,
    "ags": "07143202",
    "name": "Alpenrod",
    "zipCode": "57642",
    "district": "Westerwaldkreis",
    "state": "Rheinland-Pfalz",
    "population": 1549
  },
  {
    "longitude": 7.869988,
    "latitude": 50.631178,
    "ags": "07143202",
    "name": "Alpenrod",
    "zipCode": "57647",
    "district": "Westerwaldkreis",
    "state": "Rheinland-Pfalz",
    "population": 1549
  },
  {
    "longitude": 11.046054,
    "latitude": 51.093519,
    "ags": "16068001",
    "name": "Alperstedt",
    "zipCode": "99195",
    "district": "Landkreis Sömmerda",
    "state": "Thüringen",
    "population": 751
  },
  {
    "longitude": 8.402938,
    "latitude": 48.345111,
    "ags": "08237002",
    "name": "Alpirsbach",
    "zipCode": "72275",
    "district": "Landkreis Freudenstadt",
    "state": "Baden-Württemberg",
    "population": 6304
  },
  {
    "longitude": 7.662053,
    "latitude": 50.464108,
    "ags": "07143001",
    "name": "Alsbach",
    "zipCode": "56237",
    "district": "Westerwaldkreis",
    "state": "Rheinland-Pfalz",
    "population": 609
  },
  {
    "longitude": 8.61793,
    "latitude": 49.739626,
    "ags": "06432001",
    "name": "Alsbach-Hähnlein",
    "zipCode": "64665",
    "district": "Landkreis Darmstadt-Dieburg",
    "state": "Hessen",
    "population": 9146
  },
  {
    "longitude": 6.161607,
    "latitude": 50.874052,
    "ags": "05334004",
    "name": "Alsdorf",
    "zipCode": "52477",
    "district": "Städteregion Aachen",
    "state": "Nordrhein-Westfalen",
    "population": 47018
  },
  {
    "longitude": 7.882849,
    "latitude": 50.77617,
    "ags": "07132002",
    "name": "Alsdorf",
    "zipCode": "57518",
    "district": "Landkreis Altenkirchen",
    "state": "Rheinland-Pfalz",
    "population": 1466
  },
  {
    "longitude": 6.465431,
    "latitude": 49.887732,
    "ags": "07232002",
    "name": "Alsdorf",
    "zipCode": "54668",
    "district": "Eifelkreis Bitburg-Prüm",
    "state": "Rheinland-Pfalz",
    "population": 459
  },
  {
    "longitude": 7.8152,
    "latitude": 49.724272,
    "ags": "07333003",
    "name": "Alsenz",
    "zipCode": "67821",
    "district": "Donnersbergkreis",
    "state": "Rheinland-Pfalz",
    "population": 1694
  },
  {
    "longitude": 9.271415,
    "latitude": 50.751031,
    "ags": "06535001",
    "name": "Alsfeld",
    "zipCode": "36304",
    "district": "Vogelsbergkreis",
    "state": "Hessen",
    "population": 15989
  },
  {
    "longitude": 8.341322,
    "latitude": 49.767929,
    "ags": "07331002",
    "name": "Alsheim",
    "zipCode": "67577",
    "district": "Landkreis Alzey-Worms",
    "state": "Rheinland-Pfalz",
    "population": 2820
  },
  {
    "longitude": 11.67745,
    "latitude": 51.700463,
    "ags": "15089005",
    "name": "Alsleben",
    "zipCode": "06425",
    "district": "Salzlandkreis",
    "state": "Sachsen-Anhalt",
    "population": 2526
  },
  {
    "longitude": 9.380166,
    "latitude": 48.723629,
    "ags": "08116004",
    "name": "Altbach",
    "zipCode": "73776",
    "district": "Landkreis Esslingen",
    "state": "Baden-Württemberg",
    "population": 5967
  },
  {
    "longitude": 9.43094,
    "latitude": 54.377593,
    "ags": "01059001",
    "name": "Alt Bennebek",
    "zipCode": "24848",
    "district": "Kreis Schleswig-Flensburg",
    "state": "Schleswig-Holstein",
    "population": 332
  },
  {
    "longitude": 11.60964,
    "latitude": 53.997533,
    "ags": "13072002",
    "name": "Alt Bukow",
    "zipCode": "18233",
    "district": "Landkreis Rostock",
    "state": "Mecklenburg-Vorpommern",
    "population": 474
  },
  {
    "longitude": 14.035029,
    "latitude": 51.651872,
    "ags": "12066008",
    "name": "Altdöbern",
    "zipCode": "03229",
    "district": "Landkreis Oberspreewald-Lausitz",
    "state": "Brandenburg",
    "population": 2435
  },
  {
    "longitude": 12.109369,
    "latitude": 48.556884,
    "ags": "09274113",
    "name": "Altdorf",
    "zipCode": "84032",
    "district": "Landkreis Landshut",
    "state": "Bayern",
    "population": 11215
  },
  {
    "longitude": 8.995571,
    "latitude": 48.630941,
    "ags": "08115002",
    "name": "Altdorf",
    "zipCode": "71155",
    "district": "Landkreis Böblingen",
    "state": "Baden-Württemberg",
    "population": 4662
  },
  {
    "longitude": 9.271505,
    "latitude": 48.594688,
    "ags": "08116005",
    "name": "Altdorf",
    "zipCode": "72655",
    "district": "Landkreis Esslingen",
    "state": "Baden-Württemberg",
    "population": 1700
  },
  {
    "longitude": 8.215757,
    "latitude": 49.286213,
    "ags": "07337002",
    "name": "Altdorf",
    "zipCode": "67482",
    "district": "Landkreis Südliche Weinstraße",
    "state": "Rheinland-Pfalz",
    "population": 815
  },
  {
    "longitude": 11.354924,
    "latitude": 49.385516,
    "ags": "09574112",
    "name": "Altdorf bei Nürnberg",
    "zipCode": "90518",
    "district": "Landkreis Nürnberger Land",
    "state": "Bayern",
    "population": 15245
  },
  {
    "longitude": 9.645213,
    "latitude": 54.359629,
    "ags": "01058003",
    "name": "Alt Duvenstedt",
    "zipCode": "24782",
    "district": "Kreis Rendsburg-Eckernförde",
    "state": "Schleswig-Holstein",
    "population": 1902
  },
  {
    "longitude": 9.645213,
    "latitude": 54.359629,
    "ags": "01058003",
    "name": "Alt Duvenstedt",
    "zipCode": "24791",
    "district": "Kreis Rendsburg-Eckernförde",
    "state": "Schleswig-Holstein",
    "population": 1902
  },
  {
    "longitude": 9.645213,
    "latitude": 54.359629,
    "ags": "01058003",
    "name": "Alt Duvenstedt",
    "zipCode": "24811",
    "district": "Kreis Rendsburg-Eckernförde",
    "state": "Schleswig-Holstein",
    "population": 1902
  },
  {
    "longitude": 13.126612,
    "latitude": 54.330671,
    "ags": "13073003",
    "name": "Altefähr",
    "zipCode": "18573",
    "district": "Landkreis Vorpommern-Rügen",
    "state": "Mecklenburg-Vorpommern",
    "population": 1250
  },
  {
    "longitude": 12.203745,
    "latitude": 48.919919,
    "ags": "09375113",
    "name": "Alteglofsheim",
    "zipCode": "93087",
    "district": "Landkreis Regensburg",
    "state": "Bayern",
    "population": 3316
  },
  {
    "longitude": 7.67459,
    "latitude": 51.298662,
    "ags": "05962004",
    "name": "Altena",
    "zipCode": "58762",
    "district": "Märkischer Kreis",
    "state": "Nordrhein-Westfalen",
    "population": 16922
  },
  {
    "longitude": 6.991859,
    "latitude": 50.517326,
    "ags": "07131003",
    "name": "Altenahr",
    "zipCode": "53505",
    "district": "Landkreis Ahrweiler",
    "state": "Rheinland-Pfalz",
    "population": 1870
  },
  {
    "longitude": 7.83272,
    "latitude": 49.785381,
    "ags": "07133003",
    "name": "Altenbamberg",
    "zipCode": "55585",
    "district": "Landkreis Bad Kreuznach",
    "state": "Rheinland-Pfalz",
    "population": 737
  },
  {
    "longitude": 8.944689,
    "latitude": 51.760981,
    "ags": "05774004",
    "name": "Altenbeken",
    "zipCode": "33184",
    "district": "Kreis Paderborn",
    "state": "Nordrhein-Westfalen",
    "population": 9147
  },
  {
    "longitude": 13.757485,
    "latitude": 50.766607,
    "ags": "14628010",
    "name": "Altenberg",
    "zipCode": "01773",
    "district": "Landkreis Sächsische Schweiz-Osterzgebirge",
    "state": "Sachsen",
    "population": 7937
  },
  {
    "longitude": 13.757485,
    "latitude": 50.766607,
    "ags": "14628010",
    "name": "Altenberg",
    "zipCode": "01778",
    "district": "Landkreis Sächsische Schweiz-Osterzgebirge",
    "state": "Sachsen",
    "population": 7937
  },
  {
    "longitude": 11.540544,
    "latitude": 50.830629,
    "ags": "16074002",
    "name": "Altenberga",
    "zipCode": "07768",
    "district": "Saale-Holzland-Kreis",
    "state": "Thüringen",
    "population": 757
  },
  {
    "longitude": 7.465557,
    "latitude": 52.045876,
    "ags": "05566004",
    "name": "Altenberge",
    "zipCode": "48341",
    "district": "Kreis Steinfurt",
    "state": "Nordrhein-Westfalen",
    "population": 10296
  },
  {
    "longitude": 11.600825,
    "latitude": 50.592223,
    "ags": "16073002",
    "name": "Altenbeuthen",
    "zipCode": "07338",
    "district": "Landkreis Saalfeld-Rudolstadt",
    "state": "Thüringen",
    "population": 219
  },
  {
    "longitude": 9.401534,
    "latitude": 49.827992,
    "ags": "09676111",
    "name": "Altenbuch",
    "zipCode": "97901",
    "district": "Landkreis Miltenberg",
    "state": "Bayern",
    "population": 1225
  },
  {
    "longitude": 12.437252,
    "latitude": 50.987195,
    "ags": "16077001",
    "name": "Altenburg",
    "zipCode": "04600",
    "district": "Landkreis Altenburger Land",
    "state": "Thüringen",
    "population": 32074
  },
  {
    "longitude": 7.98331,
    "latitude": 50.370944,
    "ags": "07141002",
    "name": "Altendiez",
    "zipCode": "65624",
    "district": "Rhein-Lahn-Kreis",
    "state": "Rheinland-Pfalz",
    "population": 2195
  },
  {
    "longitude": 12.28001,
    "latitude": 49.404846,
    "ags": "09376112",
    "name": "Altendorf",
    "zipCode": "92540",
    "district": "Landkreis Schwandorf",
    "state": "Bayern",
    "population": 855
  },
  {
    "longitude": 11.010627,
    "latitude": 49.797254,
    "ags": "09471111",
    "name": "Altendorf",
    "zipCode": "96146",
    "district": "Landkreis Bamberg",
    "state": "Bayern",
    "population": 2120
  },
  {
    "longitude": 7.463616,
    "latitude": 49.552743,
    "ags": "07336003",
    "name": "Altenglan",
    "zipCode": "66885",
    "district": "Landkreis Kusel",
    "state": "Rheinland-Pfalz",
    "population": 2692
  },
  {
    "longitude": 13.104795,
    "latitude": 53.761062,
    "ags": "13071002",
    "name": "Altenhagen",
    "zipCode": "17091",
    "district": "Landkreis Mecklenburgische Seenplatte",
    "state": "Mecklenburg-Vorpommern",
    "population": 311
  },
  {
    "longitude": 11.253666,
    "latitude": 52.261877,
    "ags": "15083020",
    "name": "Altenhausen",
    "zipCode": "39343",
    "district": "Landkreis Börde",
    "state": "Sachsen-Anhalt",
    "population": 1079
  },
  {
    "longitude": 9.875234,
    "latitude": 54.434745,
    "ags": "01058004",
    "name": "Altenhof",
    "zipCode": "24340",
    "district": "Kreis Rendsburg-Eckernförde",
    "state": "Schleswig-Holstein",
    "population": 300
  },
  {
    "longitude": 12.357289,
    "latitude": 53.355473,
    "ags": "13071003",
    "name": "Altenhof",
    "zipCode": "17209",
    "district": "Landkreis Mecklenburgische Seenplatte",
    "state": "Mecklenburg-Vorpommern",
    "population": 345
  },
  {
    "longitude": 10.120656,
    "latitude": 54.402998,
    "ags": "01058005",
    "name": "Altenholz",
    "zipCode": "24161",
    "district": "Kreis Rendsburg-Eckernförde",
    "state": "Schleswig-Holstein",
    "population": 9986
  },
  {
    "longitude": 7.320514,
    "latitude": 49.442401,
    "ags": "07336004",
    "name": "Altenkirchen",
    "zipCode": "66903",
    "district": "Landkreis Kusel",
    "state": "Rheinland-Pfalz",
    "population": 1285
  },
  {
    "longitude": 13.341959,
    "latitude": 54.635674,
    "ags": "13073004",
    "name": "Altenkirchen",
    "zipCode": "18556",
    "district": "Landkreis Vorpommern-Rügen",
    "state": "Mecklenburg-Vorpommern",
    "population": 907
  },
  {
    "longitude": 7.645362,
    "latitude": 50.687851,
    "ags": "07132501",
    "name": "Altenkirchen (Westerwald)",
    "zipCode": "57610",
    "district": "Landkreis Altenkirchen",
    "state": "Rheinland-Pfalz",
    "population": 6263
  },
  {
    "longitude": 10.825665,
    "latitude": 54.13298,
    "ags": "01055002",
    "name": "Altenkrempe",
    "zipCode": "23730",
    "district": "Kreis Ostholstein",
    "state": "Schleswig-Holstein",
    "population": 1115
  },
  {
    "longitude": 11.249572,
    "latitude": 50.124993,
    "ags": "09478111",
    "name": "Altenkunstadt",
    "zipCode": "96264",
    "district": "Landkreis Lichtenfels",
    "state": "Bayern",
    "population": 5383
  },
  {
    "longitude": 12.534485,
    "latitude": 48.000956,
    "ags": "09189111",
    "name": "Altenmarkt an der Alz",
    "zipCode": "83352",
    "district": "Landkreis Traunstein",
    "state": "Bayern",
    "population": 4181
  },
  {
    "longitude": 10.602557,
    "latitude": 53.131093,
    "ags": "03360001",
    "name": "Altenmedingen",
    "zipCode": "29575",
    "district": "Landkreis Uelzen",
    "state": "Niedersachsen",
    "population": 1481
  },
  {
    "longitude": 9.57688,
    "latitude": 53.764193,
    "ags": "01061004",
    "name": "Altenmoor",
    "zipCode": "25335",
    "district": "Kreis Steinburg",
    "state": "Schleswig-Holstein",
    "population": 231
  },
  {
    "longitude": 10.590476,
    "latitude": 48.464837,
    "ags": "09772115",
    "name": "Altenmünster",
    "zipCode": "86450",
    "district": "Landkreis Augsburg",
    "state": "Bayern",
    "population": 4107
  },
  {
    "longitude": 12.956614,
    "latitude": 54.354376,
    "ags": "13073005",
    "name": "Altenpleen",
    "zipCode": "18445",
    "district": "Landkreis Vorpommern-Rügen",
    "state": "Mecklenburg-Vorpommern",
    "population": 957
  },
  {
    "longitude": 9.221764,
    "latitude": 48.591482,
    "ags": "08116006",
    "name": "Altenriet",
    "zipCode": "72657",
    "district": "Landkreis Esslingen",
    "state": "Baden-Württemberg",
    "population": 1921
  },
  {
    "longitude": 8.945024,
    "latitude": 50.285831,
    "ags": "06440001",
    "name": "Altenstadt",
    "zipCode": "63674",
    "district": "Wetteraukreis",
    "state": "Hessen",
    "population": 12169
  },
  {
    "longitude": 10.872239,
    "latitude": 47.82328,
    "ags": "09190111",
    "name": "Altenstadt",
    "zipCode": "86972",
    "district": "Landkreis Weilheim-Schongau",
    "state": "Bayern",
    "population": 3319
  },
  {
    "longitude": 10.11339,
    "latitude": 48.159753,
    "ags": "09775111",
    "name": "Altenstadt",
    "zipCode": "89281",
    "district": "Landkreis Neu-Ulm",
    "state": "Bayern",
    "population": 5109
  },
  {
    "longitude": 12.159855,
    "latitude": 49.723289,
    "ags": "09374111",
    "name": "Altenstadt an der Waldnaab",
    "zipCode": "92665",
    "district": "Landkreis Neustadt an der Waldnaab",
    "state": "Bayern",
    "population": 4793
  },
  {
    "longitude": 8.601974,
    "latitude": 48.584389,
    "ags": "08235006",
    "name": "Altensteig",
    "zipCode": "72213",
    "district": "Landkreis Calw",
    "state": "Baden-Württemberg",
    "population": 10799
  },
  {
    "longitude": 12.304003,
    "latitude": 49.092439,
    "ags": "09375114",
    "name": "Altenthann",
    "zipCode": "93177",
    "district": "Landkreis Regensburg",
    "state": "Bayern",
    "population": 1480
  },
  {
    "longitude": 13.252613,
    "latitude": 53.693838,
    "ags": "13071004",
    "name": "Altentreptow",
    "zipCode": "17087",
    "district": "Landkreis Mecklenburgische Seenplatte",
    "state": "Mecklenburg-Vorpommern",
    "population": 5307
  },
  {
    "longitude": 7.465531,
    "latitude": 50.031246,
    "ags": "07140001",
    "name": "Alterkülz",
    "zipCode": "56288",
    "district": "Rhein-Hunsrück-Kreis",
    "state": "Rheinland-Pfalz",
    "population": 403
  },
  {
    "longitude": 9.763603,
    "latitude": 49.727574,
    "ags": "09679165",
    "name": "Altertheim",
    "zipCode": "97237",
    "district": "Landkreis Würzburg",
    "state": "Bayern",
    "population": 2006
  },
  {
    "longitude": 12.171848,
    "latitude": 48.449443,
    "ags": "09274114",
    "name": "Altfraunhofen",
    "zipCode": "84169",
    "district": "Landkreis Landshut",
    "state": "Bayern",
    "population": 2393
  },
  {
    "longitude": 11.064455,
    "latitude": 48.233116,
    "ags": "09179114",
    "name": "Althegnenberg",
    "zipCode": "82278",
    "district": "Landkreis Fürstenfeldbruck",
    "state": "Bayern",
    "population": 2024
  },
  {
    "longitude": 9.448855,
    "latitude": 48.145555,
    "ags": "08426008",
    "name": "Altheim",
    "zipCode": "88499",
    "district": "Landkreis Biberach",
    "state": "Baden-Württemberg",
    "population": 2111
  },
  {
    "longitude": 9.770679,
    "latitude": 48.327677,
    "ags": "08425004",
    "name": "Altheim",
    "zipCode": "89605",
    "district": "Alb-Donau-Kreis",
    "state": "Baden-Württemberg",
    "population": 625
  },
  {
    "longitude": 10.025037,
    "latitude": 48.581738,
    "ags": "08425005",
    "name": "Altheim (Alb)",
    "zipCode": "89174",
    "district": "Alb-Donau-Kreis",
    "state": "Baden-Württemberg",
    "population": 1707
  },
  {
    "longitude": 8.795915,
    "latitude": 48.723525,
    "ags": "08235007",
    "name": "Althengstett",
    "zipCode": "75382",
    "district": "Landkreis Calw",
    "state": "Baden-Württemberg",
    "population": 7962
  },
  {
    "longitude": 7.37523,
    "latitude": 49.20325,
    "ags": "07340201",
    "name": "Althornbach",
    "zipCode": "66484",
    "district": "Landkreis Südwestpfalz",
    "state": "Rheinland-Pfalz",
    "population": 677
  },
  {
    "longitude": 9.575989,
    "latitude": 48.913413,
    "ags": "08119004",
    "name": "Althütte",
    "zipCode": "71566",
    "district": "Rems-Murr-Kreis",
    "state": "Baden-Württemberg",
    "population": 4206
  },
  {
    "longitude": 13.806665,
    "latitude": 52.962341,
    "ags": "12060012",
    "name": "Althüttendorf",
    "zipCode": "16247",
    "district": "Landkreis Barnim",
    "state": "Brandenburg",
    "population": 579
  },
  {
    "longitude": 12.738972,
    "latitude": 53.898718,
    "ags": "13072004",
    "name": "Altkalen",
    "zipCode": "17179",
    "district": "Landkreis Rostock",
    "state": "Mecklenburg-Vorpommern",
    "population": 784
  },
  {
    "longitude": 11.309672,
    "latitude": 53.3174,
    "ags": "13076001",
    "name": "Alt Krenzlin",
    "zipCode": "19288",
    "district": "Landkreis Ludwigslust-Parchim",
    "state": "Mecklenburg-Vorpommern",
    "population": 754
  },
  {
    "longitude": 13.728164,
    "latitude": 52.566902,
    "ags": "12064029",
    "name": "Altlandsberg",
    "zipCode": "15345",
    "district": "Landkreis Märkisch-Oderland",
    "state": "Brandenburg",
    "population": 9490
  },
  {
    "longitude": 7.270413,
    "latitude": 49.988472,
    "ags": "07135003",
    "name": "Altlay",
    "zipCode": "56858",
    "district": "Landkreis Cochem-Zell",
    "state": "Rheinland-Pfalz",
    "population": 432
  },
  {
    "longitude": 8.074275,
    "latitude": 49.508098,
    "ags": "07332001",
    "name": "Altleiningen",
    "zipCode": "67316",
    "district": "Landkreis Bad Dürkheim",
    "state": "Rheinland-Pfalz",
    "population": 1716
  },
  {
    "longitude": 8.074275,
    "latitude": 49.508098,
    "ags": "07332001",
    "name": "Altleiningen",
    "zipCode": "67317",
    "district": "Landkreis Bad Dürkheim",
    "state": "Rheinland-Pfalz",
    "population": 1716
  },
  {
    "longitude": 8.498339,
    "latitude": 49.301347,
    "ags": "08226003",
    "name": "Altlußheim",
    "zipCode": "68804",
    "district": "Rhein-Neckar-Kreis",
    "state": "Baden-Württemberg",
    "population": 6133
  },
  {
    "longitude": 11.648267,
    "latitude": 48.897937,
    "ags": "09176112",
    "name": "Altmannstein",
    "zipCode": "93336",
    "district": "Landkreis Eichstätt",
    "state": "Bayern",
    "population": 7001
  },
  {
    "longitude": 11.630284,
    "latitude": 52.841586,
    "ags": "15090007",
    "name": "Altmärkische Höhe",
    "zipCode": "39606",
    "district": "Landkreis Stendal",
    "state": "Sachsen-Anhalt",
    "population": 1849
  },
  {
    "longitude": 11.630284,
    "latitude": 52.841586,
    "ags": "15090007",
    "name": "Altmärkische Höhe",
    "zipCode": "39615",
    "district": "Landkreis Stendal",
    "state": "Sachsen-Anhalt",
    "population": 1849
  },
  {
    "longitude": 11.876835,
    "latitude": 52.857082,
    "ags": "15090008",
    "name": "Altmärkische Wische",
    "zipCode": "39615",
    "district": "Landkreis Stendal",
    "state": "Sachsen-Anhalt",
    "population": 852
  },
  {
    "longitude": 11.340119,
    "latitude": 53.746405,
    "ags": "13074001",
    "name": "Alt Meteln",
    "zipCode": "19069",
    "district": "Landkreis Nordwestmecklenburg",
    "state": "Mecklenburg-Vorpommern",
    "population": 1136
  },
  {
    "longitude": 12.956935,
    "latitude": 50.967479,
    "ags": "14522010",
    "name": "Altmittweida",
    "zipCode": "09648",
    "district": "Landkreis Mittelsachsen",
    "state": "Sachsen",
    "population": 1908
  },
  {
    "longitude": 10.658165,
    "latitude": 53.622775,
    "ags": "01053002",
    "name": "Alt Mölln",
    "zipCode": "23881",
    "district": "Kreis Herzogtum Lauenburg",
    "state": "Schleswig-Holstein",
    "population": 885
  },
  {
    "longitude": 11.256047,
    "latitude": 48.387627,
    "ags": "09174111",
    "name": "Altomünster",
    "zipCode": "85250",
    "district": "Landkreis Dachau",
    "state": "Bayern",
    "population": 7925
  },
  {
    "longitude": 12.67892,
    "latitude": 48.227986,
    "ags": "09171111",
    "name": "Altötting",
    "zipCode": "84503",
    "district": "Landkreis Altötting",
    "state": "Bayern",
    "population": 12969
  },
  {
    "longitude": 6.910954,
    "latitude": 49.956432,
    "ags": "07231001",
    "name": "Altrich",
    "zipCode": "54518",
    "district": "Landkreis Bernkastel-Wittlich",
    "state": "Rheinland-Pfalz",
    "population": 1669
  },
  {
    "longitude": 8.494911,
    "latitude": 49.431382,
    "ags": "07338001",
    "name": "Altrip",
    "zipCode": "67122",
    "district": "Rhein-Pfalz-Kreis",
    "state": "Rheinland-Pfalz",
    "population": 7602
  },
  {
    "longitude": 6.393899,
    "latitude": 50.018904,
    "ags": "07232003",
    "name": "Altscheid",
    "zipCode": "54636",
    "district": "Eifelkreis Bitburg-Prüm",
    "state": "Rheinland-Pfalz",
    "population": 90
  },
  {
    "longitude": 12.351571,
    "latitude": 53.512197,
    "ags": "13071001",
    "name": "Alt Schwerin",
    "zipCode": "17214",
    "district": "Landkreis Mecklenburgische Seenplatte",
    "state": "Mecklenburg-Vorpommern",
    "population": 557
  },
  {
    "longitude": 9.538271,
    "latitude": 47.93449,
    "ags": "08436005",
    "name": "Altshausen",
    "zipCode": "88361",
    "district": "Landkreis Ravensburg",
    "state": "Baden-Württemberg",
    "population": 4131
  },
  {
    "longitude": 7.292913,
    "latitude": 50.092718,
    "ags": "07135004",
    "name": "Altstrimmig",
    "zipCode": "56858",
    "district": "Landkreis Cochem-Zell",
    "state": "Rheinland-Pfalz",
    "population": 336
  },
  {
    "longitude": 12.650883,
    "latitude": 53.802405,
    "ags": "13072003",
    "name": "Alt Sührkow",
    "zipCode": "17166",
    "district": "Landkreis Rostock",
    "state": "Mecklenburg-Vorpommern",
    "population": 394
  },
  {
    "longitude": 13.244725,
    "latitude": 53.845954,
    "ags": "13075002",
    "name": "Alt Tellin",
    "zipCode": "17129",
    "district": "Landkreis Vorpommern-Greifswald",
    "state": "Mecklenburg-Vorpommern",
    "population": 376
  },
  {
    "longitude": 14.511961,
    "latitude": 52.536635,
    "ags": "12064009",
    "name": "Alt Tucheband",
    "zipCode": "15328",
    "district": "Landkreis Märkisch-Oderland",
    "state": "Brandenburg",
    "population": 790
  },
  {
    "longitude": 10.215024,
    "latitude": 47.803647,
    "ags": "09780112",
    "name": "Altusried",
    "zipCode": "87452",
    "district": "Landkreis Oberallgäu",
    "state": "Bayern",
    "population": 10086
  },
  {
    "longitude": 14.262179,
    "latitude": 53.743961,
    "ags": "13075003",
    "name": "Altwarp",
    "zipCode": "17375",
    "district": "Landkreis Vorpommern-Greifswald",
    "state": "Mecklenburg-Vorpommern",
    "population": 458
  },
  {
    "longitude": 7.567389,
    "latitude": 49.994498,
    "ags": "07140002",
    "name": "Altweidelbach",
    "zipCode": "55469",
    "district": "Rhein-Hunsrück-Kreis",
    "state": "Rheinland-Pfalz",
    "population": 252
  },
  {
    "longitude": 13.835809,
    "latitude": 53.703845,
    "ags": "13075004",
    "name": "Altwigshagen",
    "zipCode": "17379",
    "district": "Landkreis Vorpommern-Greifswald",
    "state": "Mecklenburg-Vorpommern",
    "population": 384
  },
  {
    "longitude": 11.337504,
    "latitude": 53.494331,
    "ags": "13076002",
    "name": "Alt Zachun",
    "zipCode": "19230",
    "district": "Landkreis Ludwigslust-Parchim",
    "state": "Mecklenburg-Vorpommern",
    "population": 364
  },
  {
    "longitude": 14.016045,
    "latitude": 51.917765,
    "ags": "12061005",
    "name": "Alt Zauche-Wußwerk",
    "zipCode": "15913",
    "district": "Landkreis Dahme-Spreewald",
    "state": "Brandenburg",
    "population": 485
  },
  {
    "longitude": 9.913813,
    "latitude": 53.786906,
    "ags": "01060002",
    "name": "Alveslohe",
    "zipCode": "25486",
    "district": "Kreis Segeberg",
    "state": "Schleswig-Holstein",
    "population": 2731
  },
  {
    "longitude": 9.071865,
    "latitude": 50.08681,
    "ags": "09671111",
    "name": "Alzenau",
    "zipCode": "63755",
    "district": "Landkreis Aschaffenburg",
    "state": "Bayern",
    "population": 18469
  },
  {
    "longitude": 8.112469,
    "latitude": 49.745225,
    "ags": "07331003",
    "name": "Alzey",
    "zipCode": "55232",
    "district": "Landkreis Alzey-Worms",
    "state": "Rheinland-Pfalz",
    "population": 18535
  },
  {
    "longitude": 11.855879,
    "latitude": 49.442448,
    "ags": "09361000",
    "name": "Amberg",
    "zipCode": "92224",
    "district": "",
    "state": "Bayern",
    "population": 41970
  },
  {
    "longitude": 10.680351,
    "latitude": 48.06153,
    "ags": "09778111",
    "name": "Amberg",
    "zipCode": "86854",
    "district": "Landkreis Unterallgäu",
    "state": "Bayern",
    "population": 1476
  },
  {
    "longitude": 10.21774,
    "latitude": 53.130343,
    "ags": "03355002",
    "name": "Amelinghausen",
    "zipCode": "21385",
    "district": "Landkreis Lüneburg",
    "state": "Niedersachsen",
    "population": 4030
  },
  {
    "longitude": 12.308485,
    "latitude": 47.990939,
    "ags": "09187113",
    "name": "Amerang",
    "zipCode": "83123",
    "district": "Landkreis Rosenheim",
    "state": "Bayern",
    "population": 3659
  },
  {
    "longitude": 10.486326,
    "latitude": 48.725457,
    "ags": "09779112",
    "name": "Amerdingen",
    "zipCode": "86735",
    "district": "Landkreis Donau-Ries",
    "state": "Bayern",
    "population": 841
  },
  {
    "longitude": 11.087054,
    "latitude": 52.06203,
    "ags": "15083025",
    "name": "Am Großen Bruch",
    "zipCode": "39393",
    "district": "Landkreis Börde",
    "state": "Sachsen-Anhalt",
    "population": 2063
  },
  {
    "longitude": 6.255549,
    "latitude": 49.889676,
    "ags": "07232004",
    "name": "Ammeldingen an der Our",
    "zipCode": "54675",
    "district": "Eifelkreis Bitburg-Prüm",
    "state": "Rheinland-Pfalz",
    "population": 23
  },
  {
    "longitude": 6.275565,
    "latitude": 50.049123,
    "ags": "07232005",
    "name": "Ammeldingen bei Neuerburg",
    "zipCode": "54673",
    "district": "Eifelkreis Bitburg-Prüm",
    "state": "Rheinland-Pfalz",
    "population": 262
  },
  {
    "longitude": 13.405535,
    "latitude": 52.156432,
    "ags": "12072002",
    "name": "Am Mellensee",
    "zipCode": "15838",
    "district": "Landkreis Teltow-Fläming",
    "state": "Brandenburg",
    "population": 6797
  },
  {
    "longitude": 8.965949,
    "latitude": 48.553816,
    "ags": "08416048",
    "name": "Ammerbuch",
    "zipCode": "72119",
    "district": "Landkreis Tübingen",
    "state": "Baden-Württemberg",
    "population": 11331
  },
  {
    "longitude": 10.853041,
    "latitude": 49.421097,
    "ags": "09573111",
    "name": "Ammerndorf",
    "zipCode": "90614",
    "district": "Landkreis Fürth",
    "state": "Bayern",
    "population": 2058
  },
  {
    "longitude": 10.167763,
    "latitude": 53.691174,
    "ags": "01062090",
    "name": "Ammersbek",
    "zipCode": "22949",
    "district": "Kreis Stormarn",
    "state": "Schleswig-Holstein",
    "population": 9825
  },
  {
    "longitude": 11.759473,
    "latitude": 49.439533,
    "ags": "09371111",
    "name": "Ammerthal",
    "zipCode": "92260",
    "district": "Landkreis Amberg-Sulzbach",
    "state": "Bayern",
    "population": 2091
  },
  {
    "longitude": 10.479369,
    "latitude": 51.477121,
    "ags": "16061116",
    "name": "Am Ohmberg",
    "zipCode": "37345",
    "district": "Landkreis Eichsfeld",
    "state": "Thüringen",
    "population": 3641
  },
  {
    "longitude": 8.924741,
    "latitude": 50.796985,
    "ags": "06534001",
    "name": "Amöneburg",
    "zipCode": "35287",
    "district": "Landkreis Marburg-Biedenkopf",
    "state": "Hessen",
    "population": 5096
  },
  {
    "longitude": 9.21813,
    "latitude": 49.644565,
    "ags": "09676112",
    "name": "Amorbach",
    "zipCode": "63916",
    "district": "Landkreis Miltenberg",
    "state": "Bayern",
    "population": 3990
  },
  {
    "longitude": 12.418033,
    "latitude": 48.25513,
    "ags": "09183112",
    "name": "Ampfing",
    "zipCode": "84539",
    "district": "Landkreis Mühldorf am Inn",
    "state": "Bayern",
    "population": 6576
  },
  {
    "longitude": 11.621001,
    "latitude": 54.039444,
    "ags": "13072005",
    "name": "Am Salzhaff",
    "zipCode": "18233",
    "district": "Landkreis Rostock",
    "state": "Mecklenburg-Vorpommern",
    "population": 513
  },
  {
    "longitude": 9.875601,
    "latitude": 48.577625,
    "ags": "08425008",
    "name": "Amstetten",
    "zipCode": "73340",
    "district": "Alb-Donau-Kreis",
    "state": "Baden-Württemberg",
    "population": 4013
  },
  {
    "longitude": 10.928994,
    "latitude": 53.285751,
    "ags": "03355049",
    "name": "Amt Neuhaus",
    "zipCode": "19273",
    "district": "Landkreis Lüneburg",
    "state": "Niedersachsen",
    "population": 5005
  },
  {
    "longitude": 12.989482,
    "latitude": 50.748949,
    "ags": "14521010",
    "name": "Amtsberg",
    "zipCode": "09439",
    "district": "Erzgebirgskreis",
    "state": "Sachsen",
    "population": 3696
  },
  {
    "longitude": 10.970076,
    "latitude": 50.875928,
    "ags": "16070028",
    "name": "Amt Wachsenburg",
    "zipCode": "99334",
    "district": "Ilm-Kreis",
    "state": "Thüringen",
    "population": 6511
  },
  {
    "longitude": 9.747974,
    "latitude": 47.70628,
    "ags": "08436006",
    "name": "Amtzell",
    "zipCode": "88279",
    "district": "Landkreis Ravensburg",
    "state": "Baden-Württemberg",
    "population": 4213
  },
  {
    "longitude": 11.184792,
    "latitude": 47.966991,
    "ags": "09188117",
    "name": "Andechs",
    "zipCode": "82346",
    "district": "Landkreis Starnberg",
    "state": "Bayern",
    "population": 3751
  },
  {
    "longitude": 9.302152,
    "latitude": 53.372365,
    "ags": "03357003",
    "name": "Anderlingen",
    "zipCode": "27446",
    "district": "Landkreis Rotenburg (Wümme)",
    "state": "Niedersachsen",
    "population": 859
  },
  {
    "longitude": 7.398566,
    "latitude": 50.439583,
    "ags": "07137003",
    "name": "Andernach",
    "zipCode": "56626",
    "district": "Landkreis Mayen-Koblenz",
    "state": "Rheinland-Pfalz",
    "population": 29966
  },
  {
    "longitude": 11.478438,
    "latitude": 51.14347,
    "ags": "15084012",
    "name": "An der Poststraße",
    "zipCode": "06647",
    "district": "Burgenlandkreis",
    "state": "Sachsen-Anhalt",
    "population": 1684
  },
  {
    "longitude": 7.570871,
    "latitude": 52.508973,
    "ags": "03454001",
    "name": "Andervenne",
    "zipCode": "49832",
    "district": "Landkreis Emsland",
    "state": "Niedersachsen",
    "population": 889
  },
  {
    "longitude": 10.926862,
    "latitude": 51.082589,
    "ags": "16068002",
    "name": "Andisleben",
    "zipCode": "99189",
    "district": "Landkreis Sömmerda",
    "state": "Thüringen",
    "population": 605
  },
  {
    "longitude": 8.773413,
    "latitude": 49.233855,
    "ags": "08226102",
    "name": "Angelbachtal",
    "zipCode": "74918",
    "district": "Rhein-Neckar-Kreis",
    "state": "Baden-Württemberg",
    "population": 5111
  },
  {
    "longitude": 8.449582,
    "latitude": 50.824158,
    "ags": "06534002",
    "name": "Angelburg",
    "zipCode": "35719",
    "district": "Landkreis Marburg-Biedenkopf",
    "state": "Hessen",
    "population": 3566
  },
  {
    "longitude": 10.866908,
    "latitude": 50.745105,
    "ags": "16070003",
    "name": "Angelroda",
    "zipCode": "99338",
    "district": "Ilm-Kreis",
    "state": "Thüringen",
    "population": 377
  },
  {
    "longitude": 12.859411,
    "latitude": 47.802378,
    "ags": "09172112",
    "name": "Anger",
    "zipCode": "83454",
    "district": "Landkreis Berchtesgadener Land",
    "state": "Bayern",
    "population": 4542
  },
  {
    "longitude": 14.003142,
    "latitude": 53.017304,
    "ags": "12073008",
    "name": "Angermünde",
    "zipCode": "16278",
    "district": "Landkreis Uckermark",
    "state": "Brandenburg",
    "population": 13744
  },
  {
    "longitude": 11.734487,
    "latitude": 52.358478,
    "ags": "15083030",
    "name": "Angern",
    "zipCode": "39326",
    "district": "Landkreis Börde",
    "state": "Sachsen-Anhalt",
    "population": 1967
  },
  {
    "longitude": 11.734487,
    "latitude": 52.358478,
    "ags": "15083030",
    "name": "Angern",
    "zipCode": "39517",
    "district": "Landkreis Börde",
    "state": "Sachsen-Anhalt",
    "population": 1967
  },
  {
    "longitude": 7.55307,
    "latitude": 50.499676,
    "ags": "07138002",
    "name": "Anhausen",
    "zipCode": "56584",
    "district": "Landkreis Neuwied",
    "state": "Rheinland-Pfalz",
    "population": 1349
  },
  {
    "longitude": 12.95775,
    "latitude": 53.484206,
    "ags": "13071005",
    "name": "Ankershagen",
    "zipCode": "17219",
    "district": "Landkreis Mecklenburgische Seenplatte",
    "state": "Mecklenburg-Vorpommern",
    "population": 524
  },
  {
    "longitude": 13.693003,
    "latitude": 53.855297,
    "ags": "13075005",
    "name": "Anklam",
    "zipCode": "17389",
    "district": "Landkreis Vorpommern-Greifswald",
    "state": "Mecklenburg-Vorpommern",
    "population": 12385
  },
  {
    "longitude": 7.871286,
    "latitude": 52.541026,
    "ags": "03459002",
    "name": "Ankum",
    "zipCode": "49577",
    "district": "Landkreis Osnabrück",
    "state": "Niedersachsen",
    "population": 7562
  },
  {
    "longitude": 13.003162,
    "latitude": 50.580572,
    "ags": "14521020",
    "name": "Annaberg-Buchholz",
    "zipCode": "09456",
    "district": "Erzgebirgskreis",
    "state": "Sachsen",
    "population": 19769
  },
  {
    "longitude": 13.046683,
    "latitude": 51.731338,
    "ags": "15091010",
    "name": "Annaburg",
    "zipCode": "06925",
    "district": "Landkreis Wittenberg",
    "state": "Sachsen-Anhalt",
    "population": 6731
  },
  {
    "longitude": 7.966259,
    "latitude": 49.203001,
    "ags": "07337501",
    "name": "Annweiler am Trifels",
    "zipCode": "76855",
    "district": "Landkreis Südliche Weinstraße",
    "state": "Rheinland-Pfalz",
    "population": 7081
  },
  {
    "longitude": 8.327462,
    "latitude": 51.561271,
    "ags": "05974004",
    "name": "Anröchte",
    "zipCode": "59609",
    "district": "Kreis Soest",
    "state": "Nordrhein-Westfalen",
    "population": 10275
  },
  {
    "longitude": 10.348401,
    "latitude": 51.252544,
    "ags": "16064073",
    "name": "Anrode",
    "zipCode": "99976",
    "district": "Unstrut-Hainich-Kreis",
    "state": "Thüringen",
    "population": 3147
  },
  {
    "longitude": 10.57193,
    "latitude": 49.302592,
    "ags": "09561000",
    "name": "Ansbach",
    "zipCode": "91522",
    "district": "",
    "state": "Bayern",
    "population": 41847
  },
  {
    "longitude": 7.091844,
    "latitude": 50.299019,
    "ags": "07137004",
    "name": "Anschau",
    "zipCode": "56729",
    "district": "Landkreis Mayen-Koblenz",
    "state": "Rheinland-Pfalz",
    "population": 289
  },
  {
    "longitude": 11.308407,
    "latitude": 47.749411,
    "ags": "09190113",
    "name": "Antdorf",
    "zipCode": "82387",
    "district": "Landkreis Weilheim-Schongau",
    "state": "Bayern",
    "population": 1340
  },
  {
    "longitude": 9.184625,
    "latitude": 50.795858,
    "ags": "06535002",
    "name": "Antrifttal",
    "zipCode": "36326",
    "district": "Vogelsbergkreis",
    "state": "Hessen",
    "population": 1846
  },
  {
    "longitude": 6.830811,
    "latitude": 50.403755,
    "ags": "07131004",
    "name": "Antweiler",
    "zipCode": "53533",
    "district": "Landkreis Ahrweiler",
    "state": "Rheinland-Pfalz",
    "population": 494
  },
  {
    "longitude": 11.853441,
    "latitude": 48.151444,
    "ags": "09175111",
    "name": "Anzing",
    "zipCode": "85646",
    "district": "Landkreis Ebersberg",
    "state": "Bayern",
    "population": 4429
  },
  {
    "longitude": 9.336445,
    "latitude": 52.289576,
    "ags": "03257002",
    "name": "Apelern",
    "zipCode": "31552",
    "district": "Landkreis Schaumburg",
    "state": "Niedersachsen",
    "population": 2432
  },
  {
    "longitude": 7.80595,
    "latitude": 53.218179,
    "ags": "03451001",
    "name": "Apen",
    "zipCode": "26689",
    "district": "Landkreis Ammerland",
    "state": "Niedersachsen",
    "population": 11600
  },
  {
    "longitude": 11.203595,
    "latitude": 52.708386,
    "ags": "15081026",
    "name": "Apenburg-Winterfeld",
    "zipCode": "38486",
    "district": "Altmarkkreis Salzwedel",
    "state": "Sachsen-Anhalt",
    "population": 1718
  },
  {
    "longitude": 9.613698,
    "latitude": 53.433183,
    "ags": "03359003",
    "name": "Apensen",
    "zipCode": "21641",
    "district": "Landkreis Stade",
    "state": "Niedersachsen",
    "population": 4284
  },
  {
    "longitude": 10.92837,
    "latitude": 47.895579,
    "ags": "09181111",
    "name": "Apfeldorf",
    "zipCode": "86974",
    "district": "Landkreis Landsberg am Lech",
    "state": "Bayern",
    "population": 1139
  },
  {
    "longitude": 10.494802,
    "latitude": 48.020061,
    "ags": "09778113",
    "name": "Apfeltrach",
    "zipCode": "87742",
    "district": "Landkreis Unterallgäu",
    "state": "Bayern",
    "population": 935
  },
  {
    "longitude": 11.517423,
    "latitude": 51.02536,
    "ags": "16071001",
    "name": "Apolda",
    "zipCode": "99510",
    "district": "Landkreis Weimarer Land",
    "state": "Thüringen",
    "population": 22012
  },
  {
    "longitude": 9.744968,
    "latitude": 53.390684,
    "ags": "03353001",
    "name": "Appel",
    "zipCode": "21279",
    "district": "Landkreis Harburg",
    "state": "Niedersachsen",
    "population": 1963
  },
  {
    "longitude": 9.742691,
    "latitude": 53.659806,
    "ags": "01056001",
    "name": "Appen",
    "zipCode": "25482",
    "district": "Kreis Pinneberg",
    "state": "Schleswig-Holstein",
    "population": 4831
  },
  {
    "longitude": 8.033495,
    "latitude": 49.929855,
    "ags": "07339001",
    "name": "Appenheim",
    "zipCode": "55437",
    "district": "Landkreis Mainz-Bingen",
    "state": "Rheinland-Pfalz",
    "population": 1388
  },
  {
    "longitude": 7.978133,
    "latitude": 48.537224,
    "ags": "08317005",
    "name": "Appenweier",
    "zipCode": "77767",
    "district": "Ortenaukreis",
    "state": "Baden-Württemberg",
    "population": 10256
  },
  {
    "longitude": 7.044341,
    "latitude": 50.283528,
    "ags": "07233201",
    "name": "Arbach",
    "zipCode": "56769",
    "district": "Landkreis Vulkaneifel",
    "state": "Rheinland-Pfalz",
    "population": 148
  },
  {
    "longitude": 10.616965,
    "latitude": 49.144292,
    "ags": "09571113",
    "name": "Arberg",
    "zipCode": "91722",
    "district": "Landkreis Ansbach",
    "state": "Bayern",
    "population": 2264
  },
  {
    "longitude": 6.806381,
    "latitude": 50.415251,
    "ags": "07131005",
    "name": "Aremberg",
    "zipCode": "53533",
    "district": "Landkreis Ahrweiler",
    "state": "Rheinland-Pfalz",
    "population": 215
  },
  {
    "longitude": 11.489149,
    "latitude": 52.881825,
    "ags": "15081030",
    "name": "Arendsee (Altmark)",
    "zipCode": "39619",
    "district": "Altmarkkreis Salzwedel",
    "state": "Sachsen-Anhalt",
    "population": 6750
  },
  {
    "longitude": 6.741783,
    "latitude": 49.952722,
    "ags": "07231003",
    "name": "Arenrath",
    "zipCode": "54518",
    "district": "Landkreis Bernkastel-Wittlich",
    "state": "Rheinland-Pfalz",
    "population": 394
  },
  {
    "longitude": 9.969598,
    "latitude": 51.377339,
    "ags": "16061001",
    "name": "Arenshausen",
    "zipCode": "37318",
    "district": "Landkreis Eichsfeld",
    "state": "Thüringen",
    "population": 990
  },
  {
    "longitude": 11.297536,
    "latitude": 48.531075,
    "ags": "09185113",
    "name": "Aresing",
    "zipCode": "86561",
    "district": "Landkreis Neuburg-Schrobenhausen",
    "state": "Bayern",
    "population": 2855
  },
  {
    "longitude": 7.082764,
    "latitude": 50.382822,
    "ags": "07137006",
    "name": "Arft",
    "zipCode": "56729",
    "district": "Landkreis Mayen-Koblenz",
    "state": "Rheinland-Pfalz",
    "population": 258
  },
  {
    "longitude": 9.959372,
    "latitude": 47.688159,
    "ags": "08436094",
    "name": "Argenbühl",
    "zipCode": "88260",
    "district": "Landkreis Ravensburg",
    "state": "Baden-Württemberg",
    "population": 6527
  },
  {
    "longitude": 7.699568,
    "latitude": 49.881134,
    "ags": "07133004",
    "name": "Argenschwang",
    "zipCode": "55595",
    "district": "Landkreis Bad Kreuznach",
    "state": "Rheinland-Pfalz",
    "population": 342
  },
  {
    "longitude": 7.596954,
    "latitude": 49.975997,
    "ags": "07140003",
    "name": "Argenthal",
    "zipCode": "55496",
    "district": "Rhein-Hunsrück-Kreis",
    "state": "Rheinland-Pfalz",
    "population": 1654
  },
  {
    "longitude": 9.569322,
    "latitude": 51.866505,
    "ags": "03255001",
    "name": "Arholzen",
    "zipCode": "37627",
    "district": "Landkreis Holzminden",
    "state": "Niedersachsen",
    "population": 406
  },
  {
    "longitude": 9.250362,
    "latitude": 54.160197,
    "ags": "01051002",
    "name": "Arkebek",
    "zipCode": "25767",
    "district": "Kreis Dithmarschen",
    "state": "Schleswig-Holstein",
    "population": 226
  },
  {
    "longitude": 9.083426,
    "latitude": 54.539223,
    "ags": "01054007",
    "name": "Arlewatt",
    "zipCode": "25860",
    "district": "Kreis Nordfriesland",
    "state": "Schleswig-Holstein",
    "population": 342
  },
  {
    "longitude": 8.056736,
    "latitude": 49.808643,
    "ags": "07331004",
    "name": "Armsheim",
    "zipCode": "55288",
    "district": "Landkreis Alzey-Worms",
    "state": "Rheinland-Pfalz",
    "population": 2501
  },
  {
    "longitude": 9.847056,
    "latitude": 53.971225,
    "ags": "01060003",
    "name": "Armstedt",
    "zipCode": "24616",
    "district": "Kreis Segeberg",
    "state": "Schleswig-Holstein",
    "population": 379
  },
  {
    "longitude": 9.073937,
    "latitude": 53.597506,
    "ags": "03352002",
    "name": "Armstorf",
    "zipCode": "21769",
    "district": "Landkreis Cuxhaven",
    "state": "Niedersachsen",
    "population": 658
  },
  {
    "longitude": 12.99795,
    "latitude": 49.128784,
    "ags": "09276113",
    "name": "Arnbruck",
    "zipCode": "93471",
    "district": "Landkreis Regen",
    "state": "Bayern",
    "population": 1940
  },
  {
    "longitude": 12.002138,
    "latitude": 52.675249,
    "ags": "15090010",
    "name": "Arneburg",
    "zipCode": "39596",
    "district": "Landkreis Stendal",
    "state": "Sachsen-Anhalt",
    "population": 1500
  },
  {
    "longitude": 9.932332,
    "latitude": 54.630563,
    "ags": "01059002",
    "name": "Arnis",
    "zipCode": "24399",
    "district": "Kreis Schleswig-Flensburg",
    "state": "Schleswig-Holstein",
    "population": 284
  },
  {
    "longitude": 8.064801,
    "latitude": 51.395795,
    "ags": "05958004",
    "name": "Arnsberg",
    "zipCode": "59755",
    "district": "Hochsauerlandkreis",
    "state": "Nordrhein-Westfalen",
    "population": 73628
  },
  {
    "longitude": 8.064801,
    "latitude": 51.395795,
    "ags": "05958004",
    "name": "Arnsberg",
    "zipCode": "59757",
    "district": "Hochsauerlandkreis",
    "state": "Nordrhein-Westfalen",
    "population": 73628
  },
  {
    "longitude": 8.064801,
    "latitude": 51.395795,
    "ags": "05958004",
    "name": "Arnsberg",
    "zipCode": "59759",
    "district": "Hochsauerlandkreis",
    "state": "Nordrhein-Westfalen",
    "population": 73628
  },
  {
    "longitude": 8.064801,
    "latitude": 51.395795,
    "ags": "05958004",
    "name": "Arnsberg",
    "zipCode": "59821",
    "district": "Hochsauerlandkreis",
    "state": "Nordrhein-Westfalen",
    "population": 73628
  },
  {
    "longitude": 8.064801,
    "latitude": 51.395795,
    "ags": "05958004",
    "name": "Arnsberg",
    "zipCode": "59823",
    "district": "Hochsauerlandkreis",
    "state": "Nordrhein-Westfalen",
    "population": 73628
  },
  {
    "longitude": 12.815584,
    "latitude": 49.273377,
    "ags": "09372112",
    "name": "Arnschwang",
    "zipCode": "93473",
    "district": "Landkreis Cham",
    "state": "Bayern",
    "population": 2009
  },
  {
    "longitude": 13.992798,
    "latitude": 51.097715,
    "ags": "14625010",
    "name": "Arnsdorf",
    "zipCode": "01477",
    "district": "Landkreis Bautzen",
    "state": "Sachsen",
    "population": 4855
  },
  {
    "longitude": 7.867673,
    "latitude": 50.540299,
    "ags": "07143203",
    "name": "Arnshöfen",
    "zipCode": "56244",
    "district": "Westerwaldkreis",
    "state": "Rheinland-Pfalz",
    "population": 148
  },
  {
    "longitude": 10.946529,
    "latitude": 50.8333,
    "ags": "16070004",
    "name": "Arnstadt",
    "zipCode": "99310",
    "district": "Ilm-Kreis",
    "state": "Thüringen",
    "population": 24348
  },
  {
    "longitude": 9.966942,
    "latitude": 49.978736,
    "ags": "09677114",
    "name": "Arnstein",
    "zipCode": "97450",
    "district": "Landkreis Main-Spessart",
    "state": "Bayern",
    "population": 8125
  },
  {
    "longitude": 11.456885,
    "latitude": 51.696038,
    "ags": "15087031",
    "name": "Arnstein",
    "zipCode": "06456",
    "district": "Landkreis Mansfeld-Südharz",
    "state": "Sachsen-Anhalt",
    "population": 6616
  },
  {
    "longitude": 12.8175,
    "latitude": 48.561081,
    "ags": "09277111",
    "name": "Arnstorf",
    "zipCode": "94424",
    "district": "Landkreis Rottal-Inn",
    "state": "Bayern",
    "population": 6978
  },
  {
    "longitude": 9.858986,
    "latitude": 54.039245,
    "ags": "01058007",
    "name": "Arpsdorf",
    "zipCode": "24634",
    "district": "Kreis Rendsburg-Eckernförde",
    "state": "Schleswig-Holstein",
    "population": 272
  },
  {
    "longitude": 13.002538,
    "latitude": 49.193549,
    "ags": "09372113",
    "name": "Arrach",
    "zipCode": "93474",
    "district": "Landkreis Cham",
    "state": "Bayern",
    "population": 2464
  },
  {
    "longitude": 10.486159,
    "latitude": 53.37287,
    "ags": "03355003",
    "name": "Artlenburg",
    "zipCode": "21380",
    "district": "Landkreis Lüneburg",
    "state": "Niedersachsen",
    "population": 1674
  },
  {
    "longitude": 7.747792,
    "latitude": 50.379222,
    "ags": "07141201",
    "name": "Arzbach",
    "zipCode": "56337",
    "district": "Rhein-Lahn-Kreis",
    "state": "Rheinland-Pfalz",
    "population": 1664
  },
  {
    "longitude": 13.124527,
    "latitude": 51.527348,
    "ags": "14730010",
    "name": "Arzberg",
    "zipCode": "04886",
    "district": "Landkreis Nordsachsen",
    "state": "Sachsen",
    "population": 1885
  },
  {
    "longitude": 12.185347,
    "latitude": 50.057171,
    "ags": "09479112",
    "name": "Arzberg",
    "zipCode": "95659",
    "district": "Landkreis Wunsiedel im Fichtelgebirge",
    "state": "Bayern",
    "population": 5152
  },
  {
    "longitude": 6.273505,
    "latitude": 50.088456,
    "ags": "07232201",
    "name": "Arzfeld",
    "zipCode": "54687",
    "district": "Eifelkreis Bitburg-Prüm",
    "state": "Rheinland-Pfalz",
    "population": 1380
  },
  {
    "longitude": 7.423951,
    "latitude": 50.66519,
    "ags": "07138003",
    "name": "Asbach",
    "zipCode": "53567",
    "district": "Landkreis Neuwied",
    "state": "Rheinland-Pfalz",
    "population": 7295
  },
  {
    "longitude": 7.279572,
    "latitude": 49.812309,
    "ags": "07134004",
    "name": "Asbach",
    "zipCode": "55758",
    "district": "Landkreis Birkenfeld",
    "state": "Rheinland-Pfalz",
    "population": 145
  },
  {
    "longitude": 10.818019,
    "latitude": 48.682934,
    "ags": "09779115",
    "name": "Asbach-Bäumenheim",
    "zipCode": "86663",
    "district": "Landkreis Donau-Ries",
    "state": "Bayern",
    "population": 4691
  },
  {
    "longitude": 10.030568,
    "latitude": 51.280007,
    "ags": "16061002",
    "name": "Asbach-Sickenberg",
    "zipCode": "37318",
    "district": "Landkreis Eichsfeld",
    "state": "Thüringen",
    "population": 92
  },
  {
    "longitude": 12.637381,
    "latitude": 48.997577,
    "ags": "09278116",
    "name": "Ascha",
    "zipCode": "94347",
    "district": "Landkreis Straubing-Bogen",
    "state": "Bayern",
    "population": 1619
  },
  {
    "longitude": 9.147832,
    "latitude": 49.973506,
    "ags": "09661000",
    "name": "Aschaffenburg",
    "zipCode": "63739",
    "district": "",
    "state": "Bayern",
    "population": 70527
  },
  {
    "longitude": 9.147832,
    "latitude": 49.973506,
    "ags": "09661000",
    "name": "Aschaffenburg",
    "zipCode": "63741",
    "district": "",
    "state": "Bayern",
    "population": 70527
  },
  {
    "longitude": 9.147832,
    "latitude": 49.973506,
    "ags": "09661000",
    "name": "Aschaffenburg",
    "zipCode": "63743",
    "district": "",
    "state": "Bayern",
    "population": 70527
  },
  {
    "longitude": 12.348732,
    "latitude": 48.197933,
    "ags": "09183113",
    "name": "Aschau am Inn",
    "zipCode": "84544",
    "district": "Landkreis Mühldorf am Inn",
    "state": "Bayern",
    "population": 3384
  },
  {
    "longitude": 12.324478,
    "latitude": 47.777656,
    "ags": "09187114",
    "name": "Aschau im Chiemgau",
    "zipCode": "83229",
    "district": "Landkreis Rosenheim",
    "state": "Bayern",
    "population": 5731
  },
  {
    "longitude": 7.575961,
    "latitude": 49.600926,
    "ags": "07336005",
    "name": "Aschbach",
    "zipCode": "67753",
    "district": "Landkreis Kusel",
    "state": "Rheinland-Pfalz",
    "population": 306
  },
  {
    "longitude": 7.624004,
    "latitude": 51.79173,
    "ags": "05558004",
    "name": "Ascheberg",
    "zipCode": "59387",
    "district": "Kreis Coesfeld",
    "state": "Nordrhein-Westfalen",
    "population": 15372
  },
  {
    "longitude": 10.341108,
    "latitude": 54.151075,
    "ags": "01057001",
    "name": "Ascheberg",
    "zipCode": "24326",
    "district": "Kreis Plön",
    "state": "Schleswig-Holstein",
    "population": 2932
  },
  {
    "longitude": 9.69823,
    "latitude": 54.430871,
    "ags": "01058008",
    "name": "Ascheffel",
    "zipCode": "24358",
    "district": "Kreis Rendsburg-Eckernförde",
    "state": "Schleswig-Holstein",
    "population": 988
  },
  {
    "longitude": 11.455041,
    "latitude": 51.756034,
    "ags": "15089015",
    "name": "Aschersleben",
    "zipCode": "06449",
    "district": "Salzlandkreis",
    "state": "Sachsen-Anhalt",
    "population": 27220
  },
  {
    "longitude": 11.71681,
    "latitude": 48.171014,
    "ags": "09184112",
    "name": "Aschheim",
    "zipCode": "85609",
    "district": "Landkreis München",
    "state": "Bayern",
    "population": 9198
  },
  {
    "longitude": 9.979301,
    "latitude": 53.289989,
    "ags": "03353002",
    "name": "Asendorf",
    "zipCode": "21271",
    "district": "Landkreis Harburg",
    "state": "Niedersachsen",
    "population": 1967
  },
  {
    "longitude": 9.006295,
    "latitude": 52.769261,
    "ags": "03251002",
    "name": "Asendorf",
    "zipCode": "27330",
    "district": "Landkreis Diepholz",
    "state": "Niedersachsen",
    "population": 2943
  },
  {
    "longitude": 9.397127,
    "latitude": 48.96663,
    "ags": "08119087",
    "name": "Aspach",
    "zipCode": "71546",
    "district": "Rems-Murr-Kreis",
    "state": "Baden-Württemberg",
    "population": 8187
  },
  {
    "longitude": 9.135236,
    "latitude": 48.905309,
    "ags": "08118003",
    "name": "Asperg",
    "zipCode": "71679",
    "district": "Landkreis Ludwigsburg",
    "state": "Baden-Württemberg",
    "population": 13480
  },
  {
    "longitude": 7.980973,
    "latitude": 49.906281,
    "ags": "07339002",
    "name": "Aspisheim",
    "zipCode": "55459",
    "district": "Landkreis Mainz-Bingen",
    "state": "Rheinland-Pfalz",
    "population": 854
  },
  {
    "longitude": 9.686743,
    "latitude": 49.427324,
    "ags": "08128006",
    "name": "Assamstadt",
    "zipCode": "97959",
    "district": "Main-Tauber-Kreis",
    "state": "Baden-Württemberg",
    "population": 2262
  },
  {
    "longitude": 10.1914,
    "latitude": 48.529714,
    "ags": "08425011",
    "name": "Asselfingen",
    "zipCode": "89176",
    "district": "Alb-Donau-Kreis",
    "state": "Baden-Württemberg",
    "population": 1028
  },
  {
    "longitude": 8.464722,
    "latitude": 50.5893,
    "ags": "06532001",
    "name": "Aßlar",
    "zipCode": "35614",
    "district": "Lahn-Dill-Kreis",
    "state": "Hessen",
    "population": 13656
  },
  {
    "longitude": 12.005281,
    "latitude": 47.992086,
    "ags": "09175112",
    "name": "Aßling",
    "zipCode": "85617",
    "district": "Landkreis Ebersberg",
    "state": "Bayern",
    "population": 4521
  },
  {
    "longitude": 7.779931,
    "latitude": 50.691957,
    "ags": "07143204",
    "name": "Astert",
    "zipCode": "57627",
    "district": "Westerwaldkreis",
    "state": "Rheinland-Pfalz",
    "population": 225
  },
  {
    "longitude": 7.905217,
    "latitude": 51.125217,
    "ags": "05966004",
    "name": "Attendorn",
    "zipCode": "57439",
    "district": "Kreis Olpe",
    "state": "Nordrhein-Westfalen",
    "population": 24367
  },
  {
    "longitude": 7.877157,
    "latitude": 50.291971,
    "ags": "07141003",
    "name": "Attenhausen",
    "zipCode": "56370",
    "district": "Rhein-Lahn-Kreis",
    "state": "Rheinland-Pfalz",
    "population": 414
  },
  {
    "longitude": 11.846593,
    "latitude": 48.649208,
    "ags": "09273115",
    "name": "Attenhofen",
    "zipCode": "84091",
    "district": "Landkreis Kelheim",
    "state": "Bayern",
    "population": 1376
  },
  {
    "longitude": 11.758765,
    "latitude": 48.506366,
    "ags": "09178115",
    "name": "Attenkirchen",
    "zipCode": "85395",
    "district": "Landkreis Freising",
    "state": "Bayern",
    "population": 2761
  },
  {
    "longitude": 9.698617,
    "latitude": 48.136819,
    "ags": "08426011",
    "name": "Attenweiler",
    "zipCode": "88448",
    "district": "Landkreis Biberach",
    "state": "Baden-Württemberg",
    "population": 1934
  },
  {
    "longitude": 12.4873,
    "latitude": 48.895756,
    "ags": "09278117",
    "name": "Atting",
    "zipCode": "94348",
    "district": "Landkreis Straubing-Bogen",
    "state": "Bayern",
    "population": 1693
  },
  {
    "longitude": 7.824783,
    "latitude": 50.696325,
    "ags": "07143205",
    "name": "Atzelgift",
    "zipCode": "57629",
    "district": "Westerwaldkreis",
    "state": "Rheinland-Pfalz",
    "population": 620
  },
  {
    "longitude": 7.828914,
    "latitude": 47.955421,
    "ags": "08315003",
    "name": "Au",
    "zipCode": "79280",
    "district": "Landkreis Breisgau-Hochschwarzwald",
    "state": "Baden-Württemberg",
    "population": 1471
  },
  {
    "longitude": 8.236454,
    "latitude": 48.951487,
    "ags": "08216002",
    "name": "Au am Rhein",
    "zipCode": "76474",
    "district": "Landkreis Rastatt",
    "state": "Baden-Württemberg",
    "population": 3336
  },
  {
    "longitude": 10.06413,
    "latitude": 49.552013,
    "ags": "09679114",
    "name": "Aub",
    "zipCode": "97239",
    "district": "Landkreis Würzburg",
    "state": "Bayern",
    "population": 1466
  },
  {
    "longitude": 10.434479,
    "latitude": 50.334541,
    "ags": "09673113",
    "name": "Aubstadt",
    "zipCode": "97633",
    "district": "Landkreis Rhön-Grabfeld",
    "state": "Bayern",
    "population": 709
  },
  {
    "longitude": 7.002278,
    "latitude": 50.186485,
    "ags": "07135005",
    "name": "Auderath",
    "zipCode": "56766",
    "district": "Landkreis Cochem-Zell",
    "state": "Rheinland-Pfalz",
    "population": 636
  },
  {
    "longitude": 7.765895,
    "latitude": 50.170904,
    "ags": "07141004",
    "name": "Auel",
    "zipCode": "56357",
    "district": "Rhein-Lahn-Kreis",
    "state": "Rheinland-Pfalz",
    "population": 186
  },
  {
    "longitude": 7.597484,
    "latitude": 49.831246,
    "ags": "07133005",
    "name": "Auen",
    "zipCode": "55569",
    "district": "Landkreis Bad Kreuznach",
    "state": "Rheinland-Pfalz",
    "population": 186
  },
  {
    "longitude": 10.886191,
    "latitude": 50.451843,
    "ags": "16069058",
    "name": "Auengrund",
    "zipCode": "98673",
    "district": "Landkreis Hildburghausen",
    "state": "Thüringen",
    "population": 2869
  },
  {
    "longitude": 9.499196,
    "latitude": 48.937414,
    "ags": "08119006",
    "name": "Auenwald",
    "zipCode": "71549",
    "district": "Rems-Murr-Kreis",
    "state": "Baden-Württemberg",
    "population": 6779
  },
  {
    "longitude": 12.914707,
    "latitude": 50.685786,
    "ags": "14521040",
    "name": "Auerbach",
    "zipCode": "09392",
    "district": "Erzgebirgskreis",
    "state": "Sachsen",
    "population": 2476
  },
  {
    "longitude": 13.099909,
    "latitude": 48.803259,
    "ags": "09271113",
    "name": "Auerbach",
    "zipCode": "94530",
    "district": "Landkreis Deggendorf",
    "state": "Bayern",
    "population": 2106
  },
  {
    "longitude": 11.6291,
    "latitude": 49.691728,
    "ags": "09371113",
    "name": "Auerbach in der Oberpfalz",
    "zipCode": "91275",
    "district": "Landkreis Amberg-Sulzbach",
    "state": "Bayern",
    "population": 8818
  },
  {
    "longitude": 12.402307,
    "latitude": 50.508726,
    "ags": "14523020",
    "name": "Auerbach/Vogtland",
    "zipCode": "08209",
    "district": "Vogtlandkreis",
    "state": "Sachsen",
    "population": 18357
  },
  {
    "longitude": 9.232853,
    "latitude": 52.234338,
    "ags": "03257003",
    "name": "Auetal",
    "zipCode": "31749",
    "district": "Landkreis Schaumburg",
    "state": "Niedersachsen",
    "population": 6250
  },
  {
    "longitude": 12.280959,
    "latitude": 48.872913,
    "ags": "09375115",
    "name": "Aufhausen",
    "zipCode": "93089",
    "district": "Landkreis Regensburg",
    "state": "Bayern",
    "population": 1844
  },
  {
    "longitude": 11.228675,
    "latitude": 49.8843,
    "ags": "09472115",
    "name": "Aufseß",
    "zipCode": "91347",
    "district": "Landkreis Bayreuth",
    "state": "Bayern",
    "population": 1287
  },
  {
    "longitude": 7.596879,
    "latitude": 47.787301,
    "ags": "08315004",
    "name": "Auggen",
    "zipCode": "79424",
    "district": "Landkreis Breisgau-Hochschwarzwald",
    "state": "Baden-Württemberg",
    "population": 2815
  },
  {
    "longitude": 10.892578,
    "latitude": 48.369696,
    "ags": "09761000",
    "name": "Augsburg",
    "zipCode": "86150",
    "district": "",
    "state": "Bayern",
    "population": 295135
  },
  {
    "longitude": 10.892578,
    "latitude": 48.369696,
    "ags": "09761000",
    "name": "Augsburg",
    "zipCode": "86152",
    "district": "",
    "state": "Bayern",
    "population": 295135
  },
  {
    "longitude": 10.892578,
    "latitude": 48.369696,
    "ags": "09761000",
    "name": "Augsburg",
    "zipCode": "86153",
    "district": "",
    "state": "Bayern",
    "population": 295135
  },
  {
    "longitude": 10.892578,
    "latitude": 48.369696,
    "ags": "09761000",
    "name": "Augsburg",
    "zipCode": "86154",
    "district": "",
    "state": "Bayern",
    "population": 295135
  },
  {
    "longitude": 10.892578,
    "latitude": 48.369696,
    "ags": "09761000",
    "name": "Augsburg",
    "zipCode": "86156",
    "district": "",
    "state": "Bayern",
    "population": 295135
  },
  {
    "longitude": 10.892578,
    "latitude": 48.369696,
    "ags": "09761000",
    "name": "Augsburg",
    "zipCode": "86157",
    "district": "",
    "state": "Bayern",
    "population": 295135
  },