[
  {
    "ags": "01001000",
    "name": "Flensburg, Stadt",
    "population": 90164,
    "populationMale": 44904,
    "populationFemale": 45260,
    "populationPerSquareKm": 1701,
    "longitude": 9.43751,
    "latitude": 54.78252,
    "travelRegion": "Ostsee",
    "urbanicity": "dicht besiedelt",
    "urbanicityCode": "01"
  },
  {
    "ags": "01002000",
    "name": "Kiel, Landeshauptstadt",
    "population": 246794,
    "populationMale": 120198,
    "populationFemale": 126596,
    "populationPerSquareKm": 2080,
    "longitude": 10.13727,
    "latitude": 54.321775,
    "travelRegion": "Ostsee",
    "urbanicity": "dicht besiedelt",
    "urbanicityCode": "01"
  },
  {
    "ags": "01003000",
    "name": "Lübeck, Hansestadt",
    "population": 216530,
    "populationMale": 104032,
    "populationFemale": 112498,
    "populationPerSquareKm": 1011,
    "longitude": 10.683932,
    "latitude": 53.866269,
    "travelRegion": "Ostsee",
    "urbanicity": "dicht besiedelt",
    "urbanicityCode": "01"
  },
  {
    "ags": "01004000",
    "name": "Neumünster, Stadt",
    "population": 80196,
    "populationMale": 39723,
    "populationFemale": 40473,
    "populationPerSquareKm": 1119,
    "longitude": 9.988422,
    "latitude": 54.069895,
    "travelRegion": "übrig. Schleswig-Holstein",
    "urbanicity": "dicht besiedelt",
    "urbanicityCode": "01"
  },
  {
    "ags": "01051011",
    "name": "Brunsbüttel, Stadt",
    "population": 12380,
    "populationMale": 6240,
    "populationFemale": 6140,
    "populationPerSquareKm": 190,
    "longitude": 9.13735,
    "latitude": 53.896932,
    "travelRegion": "Nordsee",
    "urbanicity": "mittlere Besiedlungsdichte",
    "urbanicityCode": "02"
  },
  {
    "ags": "01051044",
    "name": "Heide, Stadt",
    "population": 21852,
    "populationMale": 10435,
    "populationFemale": 11417,
    "populationPerSquareKm": 684,
    "longitude": 9.091156,
    "latitude": 54.193962,
    "travelRegion": "übrig. Schleswig-Holstein",
    "urbanicity": "mittlere Besiedlungsdichte",
    "urbanicityCode": "02"
  },
  {
    "ags": "01051003",
    "name": "Averlak",
    "population": 554,
    "populationMale": 288,
    "populationFemale": 266,
    "populationPerSquareKm": 61,
    "longitude": 9.182663,
    "latitude": 53.941154,
    "travelRegion": "übrig. Schleswig-Holstein",
    "urbanicity": "gering besiedelt",
    "urbanicityCode": "03"
  },
  {
    "ags": "01051010",
    "name": "Brickeln",
    "population": 212,
    "populationMale": 114,
    "populationFemale": 98,
    "populationPerSquareKm": 35,
    "longitude": 9.221166,
    "latitude": 54.00849,
    "travelRegion": "übrig. Schleswig-Holstein",
    "urbanicity": "gering besiedelt",
    "urbanicityCode": "03"
  },
  {
    "ags": "01051012",
    "name": "Buchholz",
    "population": 998,
    "populationMale": 520,
    "populationFemale": 478,
    "populationPerSquareKm": 69,
    "longitude": 9.223774,
    "latitude": 53.987132,
    "travelRegion": "übrig. Schleswig-Holstein",
    "urbanicity": "gering besiedelt",
    "urbanicityCode": "03"
  },
  {
    "ags": "01051016",
    "name": "Burg (Dithmarschen)",
    "population": 4159,
    "populationMale": 2033,
    "populationFemale": 2126,
    "populationPerSquareKm": 370,
    "longitude": 9.26246,
    "latitude": 53.99748,
    "travelRegion": "übrig. Schleswig-Holstein",
    "urbanicity": "gering besiedelt",
    "urbanicityCode": "03"
  },
  {
    "ags": "01051022",
    "name": "Dingen",
    "population": 627,
    "populationMale": 329,
    "populationFemale": 298,
    "populationPerSquareKm": 89,
    "longitude": 9.125804,
    "latitude": 53.960888,
    "travelRegion": "übrig. Schleswig-Holstein",
    "urbanicity": "gering besiedelt",
    "urbanicityCode": "03"
  },
  {
    "ags": "01051024",
    "name": "Eddelak",
    "population": 1330,
    "populationMale": 669,
    "populationFemale": 661,
    "populationPerSquareKm": 144,
    "longitude": 9.137433,
    "latitude": 53.945888,
    "travelRegion": "übrig. Schleswig-Holstein",
    "urbanicity": "gering besiedelt",
    "urbanicityCode": "03"
  },
  {
    "ags": "01051026",
    "name": "Eggstedt",
    "population": 756,
    "populationMale": 396,
    "populationFemale": 360,
    "populationPerSquareKm": 59,
    "longitude": 9.25927,
    "latitude": 54.054535,
    "travelRegion": "übrig. Schleswig-Holstein",
    "urbanicity": "gering besiedelt",
    "urbanicityCode": "03"
  },
  {
    "ags": "01051032",
    "name": "Frestedt",
    "population": 350,
    "populationMale": 182,
    "populationFemale": 168,
    "populationPerSquareKm": 34,
    "longitude": 9.175759,
    "latitude": 54.023639,
    "travelRegion": "übrig. Schleswig-Holstein",
    "urbanicity": "gering besiedelt",
    "urbanicityCode": "03"
  },
  {
    "ags": "01051037",
    "name": "Großenrade",
    "population": 454,
    "populationMale": 230,
    "populationFemale": 224,
    "populationPerSquareKm": 44,
    "longitude": 9.223435,
    "latitude": 54.02206,
    "travelRegion": "übrig. Schleswig-Holstein",
    "urbanicity": "gering besiedelt",
    "urbanicityCode": "03"
  },
  {
    "ags": "01051051",
    "name": "Hochdonn",
    "population": 1059,
    "populationMale": 531,
    "populationFemale": 528,
    "populationPerSquareKm": 194,
    "longitude": 9.293145,
    "latitude": 54.019564,
    "travelRegion": "übrig. Schleswig-Holstein",
    "urbanicity": "gering besiedelt",
    "urbanicityCode": "03"
  },
  {
    "ags": "01051064",
    "name": "Kuden",
    "population": 601,
    "populationMale": 307,
    "populationFemale": 294,
    "populationPerSquareKm": 53,
    "longitude": 9.192822,
    "latitude": 53.967853,
    "travelRegion": "übrig. Schleswig-Holstein",
    "urbanicity": "gering besiedelt",
    "urbanicityCode": "03"
  },
  {
    "ags": "01051089",
    "name": "Quickborn",
    "population": 189,
    "populationMale": 94,
    "populationFemale": 95,
    "populationPerSquareKm": 27,
    "longitude": 9.206618,
    "latitude": 54.009984,
    "travelRegion": "übrig. Schleswig-Holstein",
    "urbanicity": "gering besiedelt",
    "urbanicityCode": "03"
  },
  {
    "ags": "01051097",
    "name": "Sankt Michaelisdonn",
    "population": 3399,
    "populationMale": 1665,
    "populationFemale": 1734,
    "populationPerSquareKm": 147,
    "longitude": 9.122148,
    "latitude": 53.994438,
    "travelRegion": "übrig. Schleswig-Holstein",
    "urbanicity": "gering besiedelt",
    "urbanicityCode": "03"
  },
  {
    "ags": "01051110",
    "name": "Süderhastedt",
    "population": 755,
    "populationMale": 373,
    "populationFemale": 382,
    "populationPerSquareKm": 48,
    "longitude": 9.20886,
    "latitude": 54.04991,
    "travelRegion": "übrig. Schleswig-Holstein",
    "urbanicity": "gering besiedelt",
    "urbanicityCode": "03"
  },
  {
    "ags": "01051021",
    "name": "Diekhusen-Fahrstedt",
    "population": 683,
    "populationMale": 330,
    "populationFemale": 353,
    "populationPerSquareKm": 92,
    "longitude": 9.023165,
    "latitude": 53.946249,
    "travelRegion": "übrig. Schleswig-Holstein",
    "urbanicity": "mittlere Besiedlungsdichte",
    "urbanicityCode": "02"
  },
  {
    "ags": "01051034",
    "name": "Friedrichskoog",
    "population": 2539,
    "populationMale": 1283,
    "populationFemale": 1256,
    "populationPerSquareKm": 48,
    "longitude": 8.89741,
    "latitude": 54.013926,
    "travelRegion": "Nordsee",
    "urbanicity": "gering besiedelt",
    "urbanicityCode": "03"
  },
  {
    "ags": "01051046",
    "name": "Helse",
    "population": 828,
    "populationMale": 421,
    "populationFemale": 407,
    "populationPerSquareKm": 72,
    "longitude": 9.010226,
    "latitude": 53.977556,
    "travelRegion": "übrig. Schleswig-Holstein",
    "urbanicity": "gering besiedelt",
    "urbanicityCode": "03"
  },
  {
    "ags": "01051057",
    "name": "Kaiser-Wilhelm-Koog",
    "population": 348,
    "populationMale": 179,
    "populationFemale": 169,
    "populationPerSquareKm": 27,
    "longitude": 8.926364,
    "latitude": 53.942933,
    "travelRegion": "Nordsee",
    "urbanicity": "gering besiedelt",
    "urbanicityCode": "03"
  },
  {
    "ags": "01051062",
    "name": "Kronprinzenkoog",
    "population": 803,
    "populationMale": 411,
    "populationFemale": 392,
    "populationPerSquareKm": 28,
    "longitude": 8.964528,
    "latitude": 53.97171,
    "travelRegion": "Nordsee",
    "urbanicity": "gering besiedelt",
    "urbanicityCode": "03"
  },
  {
    "ags": "01051072",
    "name": "Marne, Stadt",
    "population": 5951,
    "populationMale": 2865,
    "populationFemale": 3086,
    "populationPerSquareKm": 1232,
    "longitude": 9.008761,
    "latitude": 53.953695,
    "travelRegion": "übrig. Schleswig-Holstein",
    "urbanicity": "mittlere Besiedlungsdichte",
    "urbanicityCode": "02"
  },
  {
    "ags": "01051073",
    "name": "Marnerdeich",
    "population": 396,
    "populationMale": 209,
    "populationFemale": 187,
    "populationPerSquareKm": 302,
    "longitude": 8.982956,
    "latitude": 53.948483,
    "travelRegion": "übrig. Schleswig-Holstein",
    "urbanicity": "mittlere Besiedlungsdichte",
    "urbanicityCode": "02"
  },
  {
    "ags": "01051076",
    "name": "Neufeld",
    "population": 594,
    "populationMale": 301,
    "populationFemale": 293,
    "populationPerSquareKm": 57,
    "longitude": 9.019046,
    "latitude": 53.907224,
    "travelRegion": "übrig. Schleswig-Holstein",
    "urbanicity": "gering besiedelt",
    "urbanicityCode": "03"
  },
  {
    "ags": "01051077",
    "name": "Neufelderkoog",
    "population": 119,
    "populationMale": 64,
    "populationFemale": 55,
    "populationPerSquareKm": 12,
    "longitude": 8.968827,
    "latitude": 53.906958,
    "travelRegion": "Nordsee",
    "urbanicity": "gering besiedelt",
    "urbanicityCode": "03"
  },
  {
    "ags": "01051090",
    "name": "Ramhusen",
    "population": 148,
    "populationMale": 75,
    "populationFemale": 73,
    "populationPerSquareKm": 31,
    "longitude": 9.090658,
    "latitude": 53.941207,
    "travelRegion": "übrig. Schleswig-Holstein",
    "urbanicity": "gering besiedelt",
    "urbanicityCode": "03"
  },
  {
    "ags": "01051103",
    "name": "Schmedeswurth",
    "population": 178,
    "populationMale": 97,
    "populationFemale": 81,
    "populationPerSquareKm": 30,
    "longitude": 9.040335,
    "latitude": 53.926172,
    "travelRegion": "übrig. Schleswig-Holstein",
    "urbanicity": "gering besiedelt",
    "urbanicityCode": "03"
  },
  {
    "ags": "01051118",
    "name": "Trennewurth",
    "population": 253,
    "populationMale": 136,
    "populationFemale": 117,
    "populationPerSquareKm": 32,
    "longitude": 9.025792,
    "latitude": 54.000236,
    "travelRegion": "übrig. Schleswig-Holstein",
    "urbanicity": "gering besiedelt",
    "urbanicityCode": "03"
  },
  {
    "ags": "01051119",
    "name": "Volsemenhusen",
    "population": 330,
    "populationMale": 182,
    "populationFemale": 148,
    "populationPerSquareKm": 20,
    "longitude": 9.065625,
    "latitude": 53.967901,
    "travelRegion": "übrig. Schleswig-Holstein",
    "urbanicity": "gering besiedelt",
    "urbanicityCode": "03"
  },
  {
    "ags": "01051005",
    "name": "Barkenholm",
    "population": 163,
    "populationMale": 90,
    "populationFemale": 73,
    "populationPerSquareKm": 32,
    "longitude": 9.174339,
    "latitude": 54.237387,
    "travelRegion": "übrig. Schleswig-Holstein",
    "urbanicity": "gering besiedelt",
    "urbanicityCode": "03"
  },
  {
    "ags": "01051008",
    "name": "Bergewöhrden",
    "population": 36,
    "populationMale": 16,
    "populationFemale": 20,
    "populationPerSquareKm": 14,
    "longitude": 9.209426,
    "latitude": 54.318469,
    "travelRegion": "übrig. Schleswig-Holstein",
    "urbanicity": "gering besiedelt",
    "urbanicityCode": "03"
  },
  {
    "ags": "01051019",
    "name": "Dellstedt",
    "population": 736,
    "populationMale": 378,
    "populationFemale": 358,
    "populationPerSquareKm": 34,
    "longitude": 9.369143,
    "latitude": 54.237892,
    "travelRegion": "übrig. Schleswig-Holstein",
    "urbanicity": "gering besiedelt",
    "urbanicityCode": "03"
  },
  {
    "ags": "01051020",
    "name": "Delve",
    "population": 735,
    "populationMale": 372,
    "populationFemale": 363,
    "populationPerSquareKm": 46,
    "longitude": 9.252365,
    "latitude": 54.303978,
    "travelRegion": "übrig. Schleswig-Holstein",
    "urbanicity": "gering besiedelt",
    "urbanicityCode": "03"
  },
  {
    "ags": "01051023",
    "name": "Dörpling",
    "population": 618,
    "populationMale": 312,
    "populationFemale": 306,
    "populationPerSquareKm": 79,
    "longitude": 9.301925,
    "latitude": 54.260654,
    "travelRegion": "übrig. Schleswig-Holstein",
    "urbanicity": "gering besiedelt",
    "urbanicityCode": "03"
  },
  {
    "ags": "01051030",
    "name": "Fedderingen",
    "population": 280,
    "populationMale": 144,
    "populationFemale": 136,
    "populationPerSquareKm": 29,
    "longitude": 9.132642,
    "latitude": 54.281144,
    "travelRegion": "übrig. Schleswig-Holstein",
    "urbanicity": "gering besiedelt",
    "urbanicityCode": "03"
  },
  {
    "ags": "01051035",
    "name": "Gaushorn",
    "population": 173,
    "populationMale": 84,
    "populationFemale": 89,
    "populationPerSquareKm": 27,
    "longitude": 9.225318,
    "latitude": 54.194896,
    "travelRegion": "übrig. Schleswig-Holstein",
    "urbanicity": "gering besiedelt",
    "urbanicityCode": "03"
  },
  {
    "ags": "01051036",
    "name": "Glüsing",
    "population": 111,
    "populationMale": 57,
    "populationFemale": 54,
    "populationPerSquareKm": 24,
    "longitude": 9.216421,
    "latitude": 54.274547,
    "travelRegion": "übrig. Schleswig-Holstein",
    "urbanicity": "gering besiedelt",
    "urbanicityCode": "03"
  },
  {
    "ags": "01051038",
    "name": "Groven",
    "population": 84,
    "populationMale": 54,
    "populationFemale": 30,
    "populationPerSquareKm": 11,
    "longitude": 8.989147,
    "latitude": 54.300165,
    "travelRegion": "übrig. Schleswig-Holstein",
    "urbanicity": "gering besiedelt",
    "urbanicityCode": "03"
  },
  {
    "ags": "01051047",
    "name": "Hemme",
    "population": 493,
    "populationMale": 261,
    "populationFemale": 232,
    "populationPerSquareKm": 30,
    "longitude": 9.010966,
    "latitude": 54.28021,
    "travelRegion": "übrig. Schleswig-Holstein",
    "urbanicity": "gering besiedelt",
    "urbanicityCode": "03"
  },
  {
    "ags": "01051049",
    "name": "Hennstedt",
    "population": 1975,
    "populationMale": 984,
    "populationFemale": 991,
    "populationPerSquareKm": 90,
    "longitude": 9.168248,
    "latitude": 54.283636,
    "travelRegion": "übrig. Schleswig-Holstein",
    "urbanicity": "gering besiedelt",
    "urbanicityCode": "03"
  },
  {
    "ags": "01051052",
    "name": "Hövede",
    "population": 60,
    "populationMale": 32,
    "populationFemale": 28,
    "populationPerSquareKm": 20,
    "longitude": 9.293409,
    "latitude": 54.243806,
    "travelRegion": "übrig. Schleswig-Holstein",
    "urbanicity": "gering besiedelt",
    "urbanicityCode": "03"
  },
  {
    "ags": "01051053",
    "name": "Hollingstedt",
    "population": 303,
    "populationMale": 145,
    "populationFemale": 158,
    "populationPerSquareKm": 31,
    "longitude": 9.226797,
    "latitude": 54.290548,
    "travelRegion": "übrig. Schleswig-Holstein",
    "urbanicity": "gering besiedelt",
    "urbanicityCode": "03"
  },
  {
    "ags": "01051058",
    "name": "Karolinenkoog",
    "population": 143,
    "populationMale": 77,
    "populationFemale": 66,
    "populationPerSquareKm": 8,
    "longitude": 8.965495,
    "latitude": 54.292554,
    "travelRegion": "übrig. Schleswig-Holstein",
    "urbanicity": "gering besiedelt",
    "urbanicityCode": "03"
  },
  {
    "ags": "01051060",
    "name": "Kleve",
    "population": 390,
    "populationMale": 197,
    "populationFemale": 193,
    "populationPerSquareKm": 30,
    "longitude": 9.123229,
    "latitude": 54.295706,
    "travelRegion": "übrig. Schleswig-Holstein",
    "urbanicity": "gering besiedelt",
    "urbanicityCode": "03"
  },
  {
    "ags": "01051061",
    "name": "Krempel",
    "population": 606,
    "populationMale": 304,
    "populationFemale": 302,
    "populationPerSquareKm": 126,
    "longitude": 9.027607,
    "latitude": 54.320019,
    "travelRegion": "übrig. Schleswig-Holstein",
    "urbanicity": "gering besiedelt",
    "urbanicityCode": "03"
  },
  {
    "ags": "01051065",
    "name": "Lehe",
    "population": 1108,
    "populationMale": 545,
    "populationFemale": 563,
    "populationPerSquareKm": 59,
    "longitude": 9.025334,
    "latitude": 54.344168,
    "travelRegion": "übrig. Schleswig-Holstein",
    "urbanicity": "gering besiedelt",
    "urbanicityCode": "03"
  },
  {
    "ags": "01051068",
    "name": "Linden",
    "population": 866,
    "populationMale": 442,
    "populationFemale": 424,
    "populationPerSquareKm": 75,
    "longitude": 9.182428,
    "latitude": 54.252623,
    "travelRegion": "übrig. Schleswig-Holstein",
    "urbanicity": "gering besiedelt",
    "urbanicityCode": "03"
  },
  {
    "ags": "01051071",
    "name": "Lunden",
    "population": 1701,
    "populationMale": 866,
    "populationFemale": 835,
    "populationPerSquareKm": 366,
    "longitude": 9.024249,
    "latitude": 54.330568,
    "travelRegion": "übrig. Schleswig-Holstein",
    "urbanicity": "gering besiedelt",
    "urbanicityCode": "03"
  },
  {
    "ags": "01051080",
    "name": "Norderheistedt",
    "population": 145,
    "populationMale": 74,
    "populationFemale": 71,
    "populationPerSquareKm": 33,
    "longitude": 9.146139,
    "latitude": 54.245331,
    "travelRegion": "übrig. Schleswig-Holstein",
    "urbanicity": "gering besiedelt",
    "urbanicityCode": "03"
  },
  {
    "ags": "01051088",
    "name": "Pahlen",
    "population": 1138,
    "populationMale": 568,
    "populationFemale": 570,
    "populationPerSquareKm": 105,
    "longitude": 9.296387,
    "latitude": 54.267813,
    "travelRegion": "übrig. Schleswig-Holstein",
    "urbanicity": "gering besiedelt",
    "urbanicityCode": "03"
  },
  {
    "ags": "01051092",
    "name": "Rehm-Flehde-Bargen",
    "population": 515,
    "populationMale": 258,
    "populationFemale": 257,
    "populationPerSquareKm": 35,
    "longitude": 9.036287,
    "latitude": 54.303981,
    "travelRegion": "übrig. Schleswig-Holstein",
    "urbanicity": "gering besiedelt",
    "urbanicityCode": "03"
  },
  {
    "ags": "01051096",
    "name": "Sankt Annen",
    "population": 325,
    "populationMale": 173,
    "populationFemale": 152,
    "populationPerSquareKm": 22,
    "longitude": 9.07975,
    "latitude": 54.345413,
    "travelRegion": "übrig. Schleswig-Holstein",
    "urbanicity": "gering besiedelt",
    "urbanicityCode": "03"
  },
  {
    "ags": "01051100",
    "name": "Schalkholz",
    "population": 585,
    "populationMale": 294,
    "populationFemale": 291,
    "populationPerSquareKm": 47,
    "longitude": 9.257028,
    "latitude": 54.246244,
    "travelRegion": "übrig. Schleswig-Holstein",
    "urbanicity": "gering besiedelt",
    "urbanicityCode": "03"
  },
  {
    "ags": "01051102",
    "name": "Schlichting",
    "population": 236,
    "populationMale": 122,
    "populationFemale": 114,
    "populationPerSquareKm": 19,
    "longitude": 9.089378,
    "latitude": 54.31014,
    "travelRegion": "übrig. Schleswig-Holstein",
    "urbanicity": "gering besiedelt",
    "urbanicityCode": "03"
  },
  {
    "ags": "01051114",
    "name": "Tellingstedt",
    "population": 2678,
    "populationMale": 1311,
    "populationFemale": 1367,
    "populationPerSquareKm": 127,
    "longitude": 9.2822,
    "latitude": 54.219944,
    "travelRegion": "übrig. Schleswig-Holstein",
    "urbanicity": "gering besiedelt",
    "urbanicityCode": "03"
  },
  {
    "ags": "01051117",
    "name": "Tielenhemme",
    "population": 161,
    "populationMale": 76,
    "populationFemale": 85,
    "populationPerSquareKm": 13,
    "longitude": 9.398414,
    "latitude": 54.27746,
    "travelRegion": "übrig. Schleswig-Holstein",
    "urbanicity": "gering besiedelt",
    "urbanicityCode": "03"
  },
  {
    "ags": "01051120",
    "name": "Wallen",
    "population": 32,
    "populationMale": 15,
    "populationFemale": 17,
    "populationPerSquareKm": 17,
    "longitude": 9.269563,
    "latitude": 54.284766,
    "travelRegion": "übrig. Schleswig-Holstein",
    "urbanicity": "gering besiedelt",
    "urbanicityCode": "03"
  },
  {
    "ags": "01051125",
    "name": "Welmbüttel",
    "population": 428,
    "populationMale": 210,
    "populationFemale": 218,
    "populationPerSquareKm": 56,
    "longitude": 9.246826,
    "latitude": 54.196873,
    "travelRegion": "übrig. Schleswig-Holstein",
    "urbanicity": "gering besiedelt",
    "urbanicityCode": "03"
  },
  {
    "ags": "01051131",
    "name": "Westerborstel",
    "population": 95,
    "populationMale": 44,
    "populationFemale": 51,
    "populationPerSquareKm": 23,
    "longitude": 9.260601,
    "latitude": 54.220127,
    "travelRegion": "übrig. Schleswig-Holstein",
    "urbanicity": "gering besiedelt",
    "urbanicityCode": "03"
  },
  {
    "ags": "01051133",
    "name": "Wiemerstedt",
    "population": 151,
    "populationMale": 77,
    "populationFemale": 74,
    "populationPerSquareKm": 30,
    "longitude": 9.11111,
    "latitude": 54.269259,
    "travelRegion": "übrig. Schleswig-Holstein",
    "urbanicity": "gering besiedelt",
    "urbanicityCode": "03"
  },
  {
    "ags": "01051136",
    "name": "Wrohm",
    "population": 706,
    "populationMale": 371,
    "populationFemale": 335,
    "populationPerSquareKm": 62,
    "longitude": 9.379505,
    "latitude": 54.212642,
    "travelRegion": "übrig. Schleswig-Holstein",
    "urbanicity": "gering besiedelt",
    "urbanicityCode": "03"
  },
  {
    "ags": "01051139",
    "name": "Süderdorf",
    "population": 345,
    "populationMale": 177,
    "populationFemale": 168,
    "populationPerSquareKm": 21,
    "longitude": 9.343678,
    "latitude": 54.220732,
    "travelRegion": "übrig. Schleswig-Holstein",
    "urbanicity": "gering besiedelt",
    "urbanicityCode": "03"
  },
  {
    "ags": "01051141",
    "name": "Süderheistedt",
    "population": 537,
    "populationMale": 266,
    "populationFemale": 271,
    "populationPerSquareKm": 64,
    "longitude": 9.148463,
    "latitude": 54.23483,
    "travelRegion": "übrig. Schleswig-Holstein",
    "urbanicity": "gering besiedelt",
    "urbanicityCode": "03"
  },
  {
    "ags": "01051048",
    "name": "Hemmingstedt",
    "population": 2878,
    "populationMale": 1424,
    "populationFemale": 1454,
    "populationPerSquareKm": 180,
    "longitude": 9.073156,
    "latitude": 54.14876,
    "travelRegion": "übrig. Schleswig-Holstein",
    "urbanicity": "gering besiedelt",
    "urbanicityCode": "03"
  },
  {
    "ags": "01051067",
    "name": "Lieth",
    "population": 372,
    "populationMale": 166,
    "populationFemale": 206,
    "populationPerSquareKm": 80,
    "longitude": 9.060773,
    "latitude": 54.15531,
    "travelRegion": "übrig. Schleswig-Holstein",
    "urbanicity": "gering besiedelt",
    "urbanicityCode": "03"
  },
  {
    "ags": "01051069",
    "name": "Lohe-Rickelshof",
    "population": 2095,
    "populationMale": 992,
    "populationFemale": 1103,
    "populationPerSquareKm": 389,
    "longitude": 9.065603,
    "latitude": 54.187725,
    "travelRegion": "übrig. Schleswig-Holstein",
    "urbanicity": "mittlere Besiedlungsdichte",
    "urbanicityCode": "02"
  },
  {
    "ags": "01051075",
    "name": "Neuenkirchen",
    "population": 949,
    "populationMale": 494,
    "populationFemale": 455,
    "populationPerSquareKm": 38,
    "longitude": 8.987884,
    "latitude": 54.235602,
    "travelRegion": "übrig. Schleswig-Holstein",
    "urbanicity": "gering besiedelt",
    "urbanicityCode": "03"
  },
  {
    "ags": "01051081",
    "name": "Norderwöhrden",
    "population": 257,
    "populationMale": 140,
    "populationFemale": 117,
    "populationPerSquareKm": 14,
    "longitude": 9.000232,
    "latitude": 54.192783,
    "travelRegion": "übrig. Schleswig-Holstein",
    "urbanicity": "gering besiedelt",
    "urbanicityCode": "03"
  },
  {
    "ags": "01051082",
    "name": "Nordhastedt",
    "population": 2827,
    "populationMale": 1418,
    "populationFemale": 1409,
    "populationPerSquareKm": 106,
    "longitude": 9.182991,
    "latitude": 54.17205,
    "travelRegion": "übrig. Schleswig-Holstein",
    "urbanicity": "gering besiedelt",
    "urbanicityCode": "03"
  },
  {
    "ags": "01051087",
    "name": "Ostrohe",
    "population": 915,
    "populationMale": 464,
    "populationFemale": 451,
    "populationPerSquareKm": 137,
    "longitude": 9.130804,
    "latitude": 54.214,
    "travelRegion": "übrig. Schleswig-Holstein",
    "urbanicity": "gering besiedelt",
    "urbanicityCode": "03"
  },
  {
    "ags": "01051107",
    "name": "Stelle-Wittenwurth",
    "population": 413,
    "populationMale": 195,
    "populationFemale": 218,
    "populationPerSquareKm": 39,
    "longitude": 9.066849,
    "latitude": 54.254357,
    "travelRegion": "übrig. Schleswig-Holstein",
    "urbanicity": "gering besiedelt",
    "urbanicityCode": "03"
  },
  {
    "ags": "01051113",
    "name": "Wöhrden",
    "population": 1260,
    "populationMale": 628,
    "populationFemale": 632,
    "populationPerSquareKm": 58,
    "longitude": 8.994508,
    "latitude": 54.165463,
    "travelRegion": "übrig. Schleswig-Holstein",
    "urbanicity": "gering besiedelt",
    "urbanicityCode": "03"
  },
  {
    "ags": "01051122",
    "name": "Weddingstedt",
    "population": 2303,
    "populationMale": 1144,
    "populationFemale": 1159,
    "populationPerSquareKm": 129,
    "longitude": 9.088863,
    "latitude": 54.239275,
    "travelRegion": "übrig. Schleswig-Holstein",
    "urbanicity": "gering besiedelt",
    "urbanicityCode": "03"
  },
  {
    "ags": "01051130",
    "name": "Wesseln",
    "population": 1433,
    "populationMale": 710,
    "populationFemale": 723,
    "populationPerSquareKm": 381,
    "longitude": 9.075443,
    "latitude": 54.208327,
    "travelRegion": "übrig. Schleswig-Holstein",
    "urbanicity": "mittlere Besiedlungsdichte",
    "urbanicityCode": "02"
  },
  {
    "ags": "01051001",
    "name": "Albersdorf",
    "population": 3708,
    "populationMale": 1812,
    "populationFemale": 1896,
    "populationPerSquareKm": 217,
    "longitude": 9.283995,
    "latitude": 54.146557,
    "travelRegion": "übrig. Schleswig-Holstein",
    "urbanicity": "gering besiedelt",
    "urbanicityCode": "03"
  },
  {
    "ags": "01051002",
    "name": "Arkebek",
    "population": 223,
    "populationMale": 115,
    "populationFemale": 108,
    "populationPerSquareKm": 32,
    "longitude": 9.250362,
    "latitude": 54.160197,
    "travelRegion": "übrig. Schleswig-Holstein",
    "urbanicity": "gering besiedelt",
    "urbanicityCode": "03"
  },
  {
    "ags": "01051004",
    "name": "Bargenstedt",
    "population": 962,
    "populationMale": 464,
    "populationFemale": 498,
    "populationPerSquareKm": 81,
    "longitude": 9.144199,
    "latitude": 54.095594,
    "travelRegion": "übrig. Schleswig-Holstein",
    "urbanicity": "gering besiedelt",
    "urbanicityCode": "03"
  },
  {
    "ags": "01051006",
    "name": "Barlt",
    "population": 752,
    "populationMale": 370,
    "populationFemale": 382,
    "populationPerSquareKm": 33,
    "longitude": 9.058002,
    "latitude": 54.012444,
    "travelRegion": "Nordsee",
    "urbanicity": "gering besiedelt",
    "urbanicityCode": "03"
  },
  {
    "ags": "01051015",
    "name": "Bunsoh",
    "population": 777,
    "populationMale": 389,
    "populationFemale": 388,
    "populationPerSquareKm": 66,
    "longitude": 9.320225,
    "latitude": 54.165522,
    "travelRegion": "übrig. Schleswig-Holstein",
    "urbanicity": "gering besiedelt",
    "urbanicityCode": "03"
  },
  {
    "ags": "01051017",
    "name": "Busenwurth",
    "population": 310,
    "populationMale": 157,
    "populationFemale": 153,
    "populationPerSquareKm": 31,
    "longitude": 9.041298,
    "latitude": 54.041407,
    "travelRegion": "Nordsee",
    "urbanicity": "gering besiedelt",
    "urbanicityCode": "03"
  },
  {
    "ags": "01051027",
    "name": "Elpersbüttel",
    "population": 844,
    "populationMale": 432,
    "populationFemale": 412,
    "populationPerSquareKm": 28,
    "longitude": 9.047156,
    "latitude": 54.072963,
    "travelRegion": "Nordsee",
    "urbanicity": "gering besiedelt",
    "urbanicityCode": "03"
  },
  {
    "ags": "01051028",
    "name": "Epenwöhrden",
    "population": 766,
    "populationMale": 378,
    "populationFemale": 388,
    "populationPerSquareKm": 57,
    "longitude": 9.052894,
    "latitude": 54.112805,
    "travelRegion": "übrig. Schleswig-Holstein",
    "urbanicity": "gering besiedelt",
    "urbanicityCode": "03"
  },
  {
    "ags": "01051039",
    "name": "Gudendorf",
    "population": 390,
    "populationMale": 195,
    "populationFemale": 195,
    "populationPerSquareKm": 65,
    "longitude": 9.1082,
    "latitude": 54.024736,
    "travelRegion": "übrig. Schleswig-Holstein",
    "urbanicity": "gering besiedelt",
    "urbanicityCode": "03"
  },
  {
    "ags": "01051054",
    "name": "Immenstedt",
    "population": 97,
    "populationMale": 40,
    "populationFemale": 57,
    "populationPerSquareKm": 31,
    "longitude": 9.299737,
    "latitude": 54.180686,
    "travelRegion": "übrig. Schleswig-Holstein",
    "urbanicity": "gering besiedelt",
    "urbanicityCode": "03"
  },
  {
    "ags": "01051063",
    "name": "Krumstedt",
    "population": 471,
    "populationMale": 237,
    "populationFemale": 234,
    "populationPerSquareKm": 30,
    "longitude": 9.177954,
    "latitude": 54.068684,
    "travelRegion": "übrig. Schleswig-Holstein",
    "urbanicity": "gering besiedelt",
    "urbanicityCode": "03"
  },
  {
    "ags": "01051074",
    "name": "Meldorf, Stadt",
    "population": 7247,
    "populationMale": 3463,
    "populationFemale": 3784,
    "populationPerSquareKm": 341,
    "longitude": 9.068784,
    "latitude": 54.090945,
    "travelRegion": "Nordsee",
    "urbanicity": "mittlere Besiedlungsdichte",
    "urbanicityCode": "02"
  },
  {
    "ags": "01051078",
    "name": "Nindorf",
    "population": 1153,
    "populationMale": 582,
    "populationFemale": 571,
    "populationPerSquareKm": 132,
    "longitude": 9.114943,
    "latitude": 54.086722,
    "travelRegion": "übrig. Schleswig-Holstein",
    "urbanicity": "gering besiedelt",
    "urbanicityCode": "03"
  },
  {
    "ags": "01051083",
    "name": "Odderade",
    "population": 323,
    "populationMale": 155,
    "populationFemale": 168,
    "populationPerSquareKm": 29,
    "longitude": 9.190795,
    "latitude": 54.139384,
    "travelRegion": "übrig. Schleswig-Holstein",
    "urbanicity": "gering besiedelt",
    "urbanicityCode": "03"
  },
  {
    "ags": "01051085",
    "name": "Offenbüttel",
    "population": 251,
    "populationMale": 121,
    "populationFemale": 130,
    "populationPerSquareKm": 18,
    "longitude": 9.357994,
    "latitude": 54.169186,
    "travelRegion": "übrig. Schleswig-Holstein",
    "urbanicity": "gering besiedelt",
    "urbanicityCode": "03"
  },
  {
    "ags": "01051086",
    "name": "Osterrade",
    "population": 413,
    "populationMale": 211,
    "populationFemale": 202,
    "populationPerSquareKm": 24,
    "longitude": 9.353264,
    "latitude": 54.190212,
    "travelRegion": "übrig. Schleswig-Holstein",
    "urbanicity": "gering besiedelt",
    "urbanicityCode": "03"
  },
  {
    "ags": "01051098",
    "name": "Sarzbüttel",
    "population": 696,
    "populationMale": 357,
    "populationFemale": 339,
    "populationPerSquareKm": 52,
    "longitude": 9.184289,
    "latitude": 54.118971,
    "travelRegion": "übrig. Schleswig-Holstein",
    "urbanicity": "gering besiedelt",
    "urbanicityCode": "03"
  },
  {
    "ags": "01051099",
    "name": "Schafstedt",
    "population": 1248,
    "populationMale": 605,
    "populationFemale": 643,
    "populationPerSquareKm": 69,
    "longitude": 9.293675,
    "latitude": 54.079915,
    "travelRegion": "übrig. Schleswig-Holstein",
    "urbanicity": "gering besiedelt",
    "urbanicityCode": "03"
  },
  {
    "ags": "01051104",
    "name": "Schrum",
    "population": 72,
    "populationMale": 36,
    "populationFemale": 36,
    "populationPerSquareKm": 14,
    "longitude": 9.251667,
    "latitude": 54.187229,
    "travelRegion": "übrig. Schleswig-Holstein",
    "urbanicity": "gering besiedelt",
    "urbanicityCode": "03"
  },
  {
    "ags": "01051126",
    "name": "Wennbüttel",
    "population": 84,
    "populationMale": 41,
    "populationFemale": 43,
    "populationPerSquareKm": 18,
    "longitude": 9.3225,
    "latitude": 54.138606,
    "travelRegion": "übrig. Schleswig-Holstein",
    "urbanicity": "gering besiedelt",
    "urbanicityCode": "03"
  },
  {
    "ags": "01051134",
    "name": "Windbergen",
    "population": 792,
    "populationMale": 405,
    "populationFemale": 387,
    "populationPerSquareKm": 46,
    "longitude": 9.117779,
    "latitude": 54.044978,
    "travelRegion": "übrig. Schleswig-Holstein",
    "urbanicity": "gering besiedelt",
    "urbanicityCode": "03"
  },
  {
    "ags": "01051135",
    "name": "Wolmersdorf",
    "population": 317,
    "populationMale": 160,
    "populationFemale": 157,
    "populationPerSquareKm": 52,
    "longitude": 9.103978,
    "latitude": 54.077114,
    "travelRegion": "übrig. Schleswig-Holstein",
    "urbanicity": "gering besiedelt",
    "urbanicityCode": "03"
  },
  {
    "ags": "01051137",
    "name": "Nordermeldorf",
    "population": 604,
    "populationMale": 319,
    "populationFemale": 285,
    "populationPerSquareKm": 18,
    "longitude": 9.013736,
    "latitude": 54.112068,
    "travelRegion": "Nordsee",
    "urbanicity": "gering besiedelt",
    "urbanicityCode": "03"
  },
  {
    "ags": "01051138",
    "name": "Tensbüttel-Röst",
    "population": 670,
    "populationMale": 331,
    "populationFemale": 339,
    "populationPerSquareKm": 35,
    "longitude": 9.228605,
    "latitude": 54.105741,
    "travelRegion": "übrig. Schleswig-Holstein",
    "urbanicity": "gering besiedelt",
    "urbanicityCode": "03"
  },
  {
    "ags": "01051013",
    "name": "Büsum",
    "population": 4907,
    "populationMale": 2301,
    "populationFemale": 2606,
    "populationPerSquareKm": 579,
    "longitude": 8.859577,
    "latitude": 54.130341,
    "travelRegion": "Nordsee",
    "urbanicity": "gering besiedelt",
    "urbanicityCode": "03"
  },
  {
    "ags": "01051014",
    "name": "Büsumer Deichhausen",
    "population": 358,
    "populationMale": 165,
    "populationFemale": 193,
    "populationPerSquareKm": 125,
    "longitude": 8.890088,
    "latitude": 54.136175,
    "travelRegion": "Nordsee",
    "urbanicity": "gering besiedelt",
    "urbanicityCode": "03"
  },
  {
    "ags": "01051033",
    "name": "Friedrichsgabekoog",
    "population": 53,
    "populationMale": 29,
    "populationFemale": 24,
    "populationPerSquareKm": 6,
    "longitude": 8.941082,
    "latitude": 54.157516,
    "travelRegion": "übrig. Schleswig-Holstein",
    "urbanicity": "gering besiedelt",
    "urbanicityCode": "03"
  },
  {
    "ags": "01051043",
    "name": "Hedwigenkoog",
    "population": 214,
    "populationMale": 108,
    "populationFemale": 106,
    "populationPerSquareKm": 13,
    "longitude": 8.840953,
    "latitude": 54.177985,
    "travelRegion": "Nordsee",
    "urbanicity": "gering besiedelt",
    "urbanicityCode": "03"
  },
  {
    "ags": "01051045",
    "name": "Hellschen-Heringsand-Unterschaar",
    "population": 167,
    "populationMale": 93,
    "populationFemale": 74,
    "populationPerSquareKm": 24,
    "longitude": 8.872882,
    "latitude": 54.194536,
    "travelRegion": "Nordsee",
    "urbanicity": "gering besiedelt",
    "urbanicityCode": "03"
  },
  {
    "ags": "01051050",
    "name": "Hillgroven",
    "population": 58,
    "populationMale": 35,
    "populationFemale": 23,
    "populationPerSquareKm": 16,
    "longitude": 8.874901,
    "latitude": 54.227921,
    "travelRegion": "übrig. Schleswig-Holstein",
    "urbanicity": "gering besiedelt",
    "urbanicityCode": "03"
  },
  {
    "ags": "01051079",
    "name": "Norddeich",
    "population": 395,
    "populationMale": 204,
    "populationFemale": 191,
    "populationPerSquareKm": 57,
    "longitude": 8.899964,
    "latitude": 54.218049,
    "travelRegion": "übrig. Schleswig-Holstein",
    "urbanicity": "gering besiedelt",
    "urbanicityCode": "03"
  },
  {
    "ags": "01051084",
    "name": "Oesterdeichstrich",
    "population": 275,
    "populationMale": 140,
    "populationFemale": 135,
    "populationPerSquareKm": 59,
    "longitude": 8.900566,
    "latitude": 54.158891,
    "travelRegion": "übrig. Schleswig-Holstein",
    "urbanicity": "gering besiedelt",
    "urbanicityCode": "03"
  },
  {
    "ags": "01051093",
    "name": "Reinsbüttel",
    "population": 384,
    "populationMale": 198,
    "populationFemale": 186,
    "populationPerSquareKm": 56,
    "longitude": 8.911057,
    "latitude": 54.179073,
    "travelRegion": "übrig. Schleswig-Holstein",
    "urbanicity": "gering besiedelt",
    "urbanicityCode": "03"
  },
  {
    "ags": "01051105",
    "name": "Schülp",
    "population": 396,
    "populationMale": 206,
    "populationFemale": 190,
    "populationPerSquareKm": 43,
    "longitude": 8.929943,
    "latitude": 54.241971,
    "travelRegion": "übrig. Schleswig-Holstein",
    "urbanicity": "gering besiedelt",
    "urbanicityCode": "03"
  },
  {
    "ags": "01051108",
    "name": "Strübbel",
    "population": 85,
    "populationMale": 36,
    "populationFemale": 49,
    "populationPerSquareKm": 19,
    "longitude": 8.971812,
    "latitude": 54.260389,
    "travelRegion": "übrig. Schleswig-Holstein",
    "urbanicity": "gering besiedelt",
    "urbanicityCode": "03"
  },
  {
    "ags": "01051109",
    "name": "Süderdeich",
    "population": 472,
    "populationMale": 231,
    "populationFemale": 241,
    "populationPerSquareKm": 71,
    "longitude": 8.91131,
    "latitude": 54.201711,
    "travelRegion": "übrig. Schleswig-Holstein",
    "urbanicity": "gering besiedelt",
    "urbanicityCode": "03"
  },
  {
    "ags": "01051121",
    "name": "Warwerort",
    "population": 235,
    "populationMale": 122,
    "populationFemale": 113,
    "populationPerSquareKm": 51,
    "longitude": 8.921723,
    "latitude": 54.141177,
    "travelRegion": "Nordsee",
    "urbanicity": "gering besiedelt",
    "urbanicityCode": "03"
  },
  {
    "ags": "01051127",
    "name": "Wesselburen, Stadt",
    "population": 3415,
    "populationMale": 1641,
    "populationFemale": 1774,
    "populationPerSquareKm": 666,
    "longitude": 8.920686,
    "latitude": 54.212159,
    "travelRegion": "übrig. Schleswig-Holstein",
    "urbanicity": "gering besiedelt",
    "urbanicityCode": "03"
  },
  {
    "ags": "01051128",
    "name": "Wesselburener Deichhausen",
    "population": 104,
    "populationMale": 50,
    "populationFemale": 54,
    "populationPerSquareKm": 21,
    "longitude": 8.937237,
    "latitude": 54.174947,
    "travelRegion": "übrig. Schleswig-Holstein",
    "urbanicity": "gering besiedelt",
    "urbanicityCode": "03"
  },
  {
    "ags": "01051129",
    "name": "Wesselburenerkoog",
    "population": 178,
    "populationMale": 94,
    "populationFemale": 84,
    "populationPerSquareKm": 8,
    "longitude": 8.876475,
    "latitude": 54.239438,
    "travelRegion": "Nordsee",
    "urbanicity": "gering besiedelt",
    "urbanicityCode": "03"
  },
  {
    "ags": "01051132",
    "name": "Westerdeichstrich",
    "population": 874,
    "populationMale": 425,
    "populationFemale": 449,
    "populationPerSquareKm": 117,
    "longitude": 8.863517,
    "latitude": 54.162006,
    "travelRegion": "Nordsee",
    "urbanicity": "gering besiedelt",
    "urbanicityCode": "03"
  },
  {
    "ags": "01051140",
    "name": "Oesterwurth",
    "population": 248,
    "populationMale": 135,
    "populationFemale": 113,
    "populationPerSquareKm": 17,
    "longitude": 8.991292,
    "latitude": 54.211016,
    "travelRegion": "übrig. Schleswig-Holstein",
    "urbanicity": "gering besiedelt",
    "urbanicityCode": "03"
  },
  {
    "ags": "01053032",
    "name": "Geesthacht, Stadt",
    "population": 30688,
    "populationMale": 15100,
    "populationFemale": 15588,
    "populationPerSquareKm": 923,
    "longitude": 10.371785,
    "latitude": 53.433626,
    "travelRegion": "übrig. Schleswig-Holstein",
    "urbanicity": "mittlere Besiedlungsdichte",
    "urbanicityCode": "02"
  },
  {
    "ags": "01053083",
    "name": "Lauenburg/ Elbe, Stadt",
    "population": 11402,
    "populationMale": 5711,
    "populationFemale": 5691,
    "populationPerSquareKm": 1193,
    "longitude": 10.554267,
    "latitude": 53.374189,
    "travelRegion": "übrig. Schleswig-Holstein",
    "urbanicity": "mittlere Besiedlungsdichte",
    "urbanicityCode": "02"
  },
  {
    "ags": "01053090",
    "name": "Mölln, Stadt",
    "population": 19131,
    "populationMale": 9115,
    "populationFemale": 10016,
    "populationPerSquareKm": 764,
    "longitude": 10.691022,
    "latitude": 53.629521,
    "travelRegion": "übrig. Schleswig-Holstein",
    "urbanicity": "mittlere Besiedlungsdichte",
    "urbanicityCode": "02"
  },
  {
    "ags": "01053100",
    "name": "Ratzeburg, Stadt",
    "population": 14525,
    "populationMale": 6863,
    "populationFemale": 7662,
    "populationPerSquareKm": 480,
    "longitude": 10.774492,
    "latitude": 53.699024,
    "travelRegion": "übrig. Schleswig-Holstein",
    "urbanicity": "mittlere Besiedlungsdichte",
    "urbanicityCode": "02"
  },
  {
    "ags": "01053116",
    "name": "Schwarzenbek, Stadt",
    "population": 16551,
    "populationMale": 8161,
    "populationFemale": 8390,
    "populationPerSquareKm": 1433,
    "longitude": 10.477663,
    "latitude": 53.502645,
    "travelRegion": "übrig. Schleswig-Holstein",
    "urbanicity": "mittlere Besiedlungsdichte",
    "urbanicityCode": "02"
  },
  {
    "ags": "01053129",
    "name": "Wentorf bei Hamburg",
    "population": 13439,
    "populationMale": 6426,
    "populationFemale": 7013,
    "populationPerSquareKm": 1956,
    "longitude": 10.2519,
    "latitude": 53.491012,
    "travelRegion": "übrig. Schleswig-Holstein",
    "urbanicity": "dicht besiedelt",
    "urbanicityCode": "01"
  },
  {
    "ags": "01053008",
    "name": "Behlendorf",
    "population": 381,
    "populationMale": 186,
    "populationFemale": 195,
    "populationPerSquareKm": 37,
    "longitude": 10.667846,
    "latitude": 53.699475,
    "travelRegion": "übrig. Schleswig-Holstein",
    "urbanicity": "gering besiedelt",
    "urbanicityCode": "03"
  },
  {
    "ags": "01053009",
    "name": "Berkenthin",
    "population": 2082,
    "populationMale": 1018,
    "populationFemale": 1064,
    "populationPerSquareKm": 201,
    "longitude": 10.638221,
    "latitude": 53.734488,
    "travelRegion": "übrig. Schleswig-Holstein",
    "urbanicity": "gering besiedelt",
    "urbanicityCode": "03"
  },
  {
    "ags": "01053011",
    "name": "Bliestorf",
    "population": 663,
    "populationMale": 321,
    "populationFemale": 342,
    "populationPerSquareKm": 64,
    "longitude": 10.602527,
    "latitude": 53.768797,
    "travelRegion": "übrig. Schleswig-Holstein",
    "urbanicity": "gering besiedelt",
    "urbanicityCode": "03"
  },
  {
    "ags": "01053024",
    "name": "Düchelsdorf",
    "population": 166,
    "populationMale": 86,
    "populationFemale": 80,
    "populationPerSquareKm": 55,
    "longitude": 10.580373,
    "latitude": 53.737072,
    "travelRegion": "übrig. Schleswig-Holstein",
    "urbanicity": "gering besiedelt",
    "urbanicityCode": "03"
  },
  {
    "ags": "01053034",
    "name": "Göldenitz",
    "population": 228,
    "populationMale": 115,
    "populationFemale": 113,
    "populationPerSquareKm": 45,
    "longitude": 10.631501,
    "latitude": 53.722025,
    "travelRegion": "übrig. Schleswig-Holstein",
    "urbanicity": "gering besiedelt",
    "urbanicityCode": "03"
  },
  {
    "ags": "01053061",
    "name": "Kastorf",
    "population": 1105,
    "populationMale": 553,
    "populationFemale": 552,
    "populationPerSquareKm": 160,
    "longitude": 10.570134,
    "latitude": 53.748875,
    "travelRegion": "übrig. Schleswig-Holstein",
    "urbanicity": "gering besiedelt",
    "urbanicityCode": "03"
  },
  {
    "ags": "01053067",
    "name": "Klempau",
    "population": 611,
    "populationMale": 331,
    "populationFemale": 280,
    "populationPerSquareKm": 61,
    "longitude": 10.660387,
    "latitude": 53.762851,
    "travelRegion": "übrig. Schleswig-Holstein",
    "urbanicity": "gering besiedelt",
    "urbanicityCode": "03"
  },
  {
    "ags": "01053075",
    "name": "Krummesse",
    "population": 1718,
    "populationMale": 813,
    "populationFemale": 905,
    "populationPerSquareKm": 513,
    "longitude": 10.641961,
    "latitude": 53.780123,
    "travelRegion": "übrig. Schleswig-Holstein",
    "urbanicity": "gering besiedelt",
    "urbanicityCode": "03"
  },
  {
    "ags": "01053094",
    "name": "Niendorf bei Berkenthin",
    "population": 196,
    "populationMale": 92,
    "populationFemale": 104,
    "populationPerSquareKm": 49,
    "longitude": 10.626158,
    "latitude": 53.702417,
    "travelRegion": "übrig. Schleswig-Holstein",
    "urbanicity": "gering besiedelt",
    "urbanicityCode": "03"
  },
  {
    "ags": "01053103",
    "name": "Rondeshagen",
    "population": 812,
    "populationMale": 410,
    "populationFemale": 402,
    "populationPerSquareKm": 85,
    "longitude": 10.629717,
    "latitude": 53.753642,
    "travelRegion": "übrig. Schleswig-Holstein",
    "urbanicity": "gering besiedelt",
    "urbanicityCode": "03"
  },
  {
    "ags": "01053120",
    "name": "Sierksrade",
    "population": 433,
    "populationMale": 236,
    "populationFemale": 197,
    "populationPerSquareKm": 108,
    "longitude": 10.600344,
    "latitude": 53.736555,
    "travelRegion": "übrig. Schleswig-Holstein",
    "urbanicity": "gering besiedelt",
    "urbanicityCode": "03"
  },
  {
    "ags": "01053002",
    "name": "Alt-Mölln",
    "population": 848,
    "populationMale": 426,
    "populationFemale": 422,
    "populationPerSquareKm": 132,
    "longitude": 10.658165,
    "latitude": 53.622775,
    "travelRegion": "übrig. Schleswig-Holstein",
    "urbanicity": "mittlere Besiedlungsdichte",
    "urbanicityCode": "02"
  },
  {
    "ags": "01053005",
    "name": "Bälau",
    "population": 230,
    "populationMale": 106,
    "populationFemale": 124,
    "populationPerSquareKm": 35,
    "longitude": 10.621739,
    "latitude": 53.616381,
    "travelRegion": "übrig. Schleswig-Holstein",
    "urbanicity": "gering besiedelt",
    "urbanicityCode": "03"
  },
  {
    "ags": "01053013",
    "name": "Borstorf",
    "population": 300,
    "populationMale": 143,
    "populationFemale": 157,
    "populationPerSquareKm": 35,
    "longitude": 10.564234,
    "latitude": 53.613074,
    "travelRegion": "übrig. Schleswig-Holstein",
    "urbanicity": "gering besiedelt",
    "urbanicityCode": "03"
  },
  {
    "ags": "01053014",
    "name": "Breitenfelde",
    "population": 1953,
    "populationMale": 975,
    "populationFemale": 978,
    "populationPerSquareKm": 156,
    "longitude": 10.632977,
    "latitude": 53.605112,
    "travelRegion": "übrig. Schleswig-Holstein",
    "urbanicity": "mittlere Besiedlungsdichte",
    "urbanicityCode": "02"
  },
  {
    "ags": "01053037",
    "name": "Grambek",
    "population": 492,
    "populationMale": 239,
    "populationFemale": 253,
    "populationPerSquareKm": 39,
    "longitude": 10.68068,
    "latitude": 53.574025,
    "travelRegion": "übrig. Schleswig-Holstein",
    "urbanicity": "gering besiedelt",
    "urbanicityCode": "03"
  },
  {
    "ags": "01053056",
    "name": "Hornbek",
    "population": 188,
    "populationMale": 91,
    "populationFemale": 97,
    "populationPerSquareKm": 32,
    "longitude": 10.648548,
    "latitude": 53.5589,
    "travelRegion": "übrig. Schleswig-Holstein",
    "urbanicity": "gering besiedelt",
    "urbanicityCode": "03"
  },
  {
    "ags": "01053084",
    "name": "Lehmrade",
    "population": 594,
    "populationMale": 303,
    "populationFemale": 291,
    "populationPerSquareKm": 52,
    "longitude": 10.752721,
    "latitude": 53.5947,
    "travelRegion": "übrig. Schleswig-Holstein",
    "urbanicity": "gering besiedelt",
    "urbanicityCode": "03"
  },
  {
    "ags": "01053095",
    "name": "Niendorf/ Stecknitz",
    "population": 653,
    "populationMale": 319,
    "populationFemale": 334,
    "populationPerSquareKm": 78,
    "longitude": 10.609244,
    "latitude": 53.587228,
    "travelRegion": "übrig. Schleswig-Holstein",
    "urbanicity": "gering besiedelt",
    "urbanicityCode": "03"
  },
  {
    "ags": "01053113",
    "name": "Schretstaken",
    "population": 489,
    "populationMale": 256,
    "populationFemale": 233,
    "populationPerSquareKm": 58,
    "longitude": 10.539293,
    "latitude": 53.586533,
    "travelRegion": "übrig. Schleswig-Holstein",
    "urbanicity": "gering besiedelt",
    "urbanicityCode": "03"
  },
  {
    "ags": "01053125",
    "name": "Talkau",
    "population": 516,
    "populationMale": 268,
    "populationFemale": 248,
    "populationPerSquareKm": 106,
    "longitude": 10.568741,
    "latitude": 53.576852,
    "travelRegion": "übrig. Schleswig-Holstein",
    "urbanicity": "gering besiedelt",
    "urbanicityCode": "03"
  },
  {
    "ags": "01053134",
    "name": "Woltersdorf",
    "population": 305,
    "populationMale": 161,
    "populationFemale": 144,
    "populationPerSquareKm": 39,
    "longitude": 10.640176,
    "latitude": 53.576862,
    "travelRegion": "übrig. Schleswig-Holstein",
    "urbanicity": "gering besiedelt",
    "urbanicityCode": "03"
  },
  {
    "ags": "01053010",
    "name": "Besenthal",
    "population": 92,
    "populationMale": 48,
    "populationFemale": 44,
    "populationPerSquareKm": 7,
    "longitude": 10.743239,
    "latitude": 53.530139,
    "travelRegion": "übrig. Schleswig-Holstein",
    "urbanicity": "gering besiedelt",
    "urbanicityCode": "03"
  },
  {
    "ags": "01053015",
    "name": "Bröthen",
    "population": 311,
    "populationMale": 157,
    "populationFemale": 154,
    "populationPerSquareKm": 29,
    "longitude": 10.667034,
    "latitude": 53.480281,
    "travelRegion": "übrig. Schleswig-Holstein",
    "urbanicity": "gering besiedelt",
    "urbanicityCode": "03"
  },
  {
    "ags": "01053020",
    "name": "Büchen",
    "population": 6093,
    "populationMale": 2998,
    "populationFemale": 3095,
    "populationPerSquareKm": 362,
    "longitude": 10.616482,
    "latitude": 53.480926,
    "travelRegion": "übrig. Schleswig-Holstein",
    "urbanicity": "gering besiedelt",
    "urbanicityCode": "03"
  },
  {
    "ags": "01053029",
    "name": "Fitzen",
    "population": 364,
    "populationMale": 192,
    "populationFemale": 172,
    "populationPerSquareKm": 40,
    "longitude": 10.64667,
    "latitude": 53.493942,
    "travelRegion": "übrig. Schleswig-Holstein",
    "urbanicity": "gering besiedelt",
    "urbanicityCode": "03"
  },
  {
    "ags": "01053035",
    "name": "Göttin",
    "population": 65,
    "populationMale": 29,
    "populationFemale": 36,
    "populationPerSquareKm": 12,
    "longitude": 10.70343,
    "latitude": 53.533746,
    "travelRegion": "übrig. Schleswig-Holstein",
    "urbanicity": "gering besiedelt",
    "urbanicityCode": "03"
  },
  {
    "ags": "01053046",
    "name": "Gudow",
    "population": 1672,
    "populationMale": 852,
    "populationFemale": 820,
    "populationPerSquareKm": 40,
    "longitude": 10.77219,
    "latitude": 53.555336,
    "travelRegion": "übrig. Schleswig-Holstein",
    "urbanicity": "gering besiedelt",
    "urbanicityCode": "03"
  },
  {
    "ags": "01053048",
    "name": "Güster",
    "population": 1300,
    "populationMale": 662,
    "populationFemale": 638,
    "populationPerSquareKm": 167,
    "longitude": 10.680583,
    "latitude": 53.53952,
    "travelRegion": "übrig. Schleswig-Holstein",
    "urbanicity": "gering besiedelt",
    "urbanicityCode": "03"
  },
  {
    "ags": "01053064",
    "name": "Klein Pampau",
    "population": 648,
    "populationMale": 330,
    "populationFemale": 318,
    "populationPerSquareKm": 155,
    "longitude": 10.586656,
    "latitude": 53.512681,
    "travelRegion": "übrig. Schleswig-Holstein",
    "urbanicity": "gering besiedelt",
    "urbanicityCode": "03"
  },
  {
    "ags": "01053080",
    "name": "Langenlehsten",
    "population": 147,
    "populationMale": 67,
    "populationFemale": 80,
    "populationPerSquareKm": 6,
    "longitude": 10.740533,
    "latitude": 53.499907,
    "travelRegion": "übrig. Schleswig-Holstein",
    "urbanicity": "gering besiedelt",
    "urbanicityCode": "03"
  },
  {
    "ags": "01053092",
    "name": "Müssen",
    "population": 1165,
    "populationMale": 581,
    "populationFemale": 584,
    "populationPerSquareKm": 102,
    "longitude": 10.562546,
    "latitude": 53.494346,
    "travelRegion": "übrig. Schleswig-Holstein",
    "urbanicity": "gering besiedelt",
    "urbanicityCode": "03"
  },
  {
    "ags": "01053104",
    "name": "Roseburg",
    "population": 530,
    "populationMale": 264,
    "populationFemale": 266,
    "populationPerSquareKm": 33,
    "longitude": 10.624215,
    "latitude": 53.530505,
    "travelRegion": "übrig. Schleswig-Holstein",
    "urbanicity": "gering besiedelt",
    "urbanicityCode": "03"
  },
  {
    "ags": "01053115",
    "name": "Schulendorf",
    "population": 448,
    "populationMale": 224,
    "populationFemale": 224,
    "populationPerSquareKm": 39,
    "longitude": 10.561815,
    "latitude": 53.47331,
    "travelRegion": "übrig. Schleswig-Holstein",
    "urbanicity": "gering besiedelt",
    "urbanicityCode": "03"
  },
  {
    "ags": "01053119",
    "name": "Siebeneichen",
    "population": 250,
    "populationMale": 124,
    "populationFemale": 126,
    "populationPerSquareKm": 53,
    "longitude": 10.618693,
    "latitude": 53.510828,
    "travelRegion": "übrig. Schleswig-Holstein",
    "urbanicity": "gering besiedelt",
    "urbanicityCode": "03"
  },
  {
    "ags": "01053126",
    "name": "Tramm",
    "population": 347,
    "populationMale": 174,
    "populationFemale": 173,
    "populationPerSquareKm": 51,
    "longitude": 10.614693,
    "latitude": 53.56324,
    "travelRegion": "übrig. Schleswig-Holstein",
    "urbanicity": "gering besiedelt",
    "urbanicityCode": "03"
  },
  {
    "ags": "01053132",
    "name": "Witzeeze",
    "population": 905,
    "populationMale": 416,
    "populationFemale": 489,
    "populationPerSquareKm": 87,
    "longitude": 10.610144,
    "latitude": 53.452652,
    "travelRegion": "übrig. Schleswig-Holstein",
    "urbanicity": "gering besiedelt",
    "urbanicityCode": "03"
  },
  {
    "ags": "01053003",
    "name": "Aumühle",
    "population": 3265,
    "populationMale": 1551,
    "populationFemale": 1714,
    "populationPerSquareKm": 938,
    "longitude": 10.313492,
    "latitude": 53.528598,
    "travelRegion": "übrig. Schleswig-Holstein",
    "urbanicity": "mittlere Besiedlungsdichte",
    "urbanicityCode": "02"
  },
  {
    "ags": "01053012",
    "name": "Börnsen",
    "population": 4796,
    "populationMale": 2354,
    "populationFemale": 2442,
    "populationPerSquareKm": 570,
    "longitude": 10.285588,
    "latitude": 53.476743,
    "travelRegion": "übrig. Schleswig-Holstein",
    "urbanicity": "mittlere Besiedlungsdichte",
    "urbanicityCode": "02"
  },
  {
    "ags": "01053023",
    "name": "Dassendorf",
    "population": 3405,
    "populationMale": 1689,
    "populationFemale": 1716,
    "populationPerSquareKm": 429,
    "longitude": 10.372665,
    "latitude": 53.488608,
    "travelRegion": "übrig. Schleswig-Holstein",
    "urbanicity": "gering besiedelt",
    "urbanicityCode": "03"
  },
  {
    "ags": "01053028",
    "name": "Escheburg",
    "population": 3461,
    "populationMale": 1735,
    "populationFemale": 1726,
    "populationPerSquareKm": 388,
    "longitude": 10.309429,
    "latitude": 53.46713,
    "travelRegion": "übrig. Schleswig-Holstein",
    "urbanicity": "mittlere Besiedlungsdichte",
    "urbanicityCode": "02"
  },
  {
    "ags": "01053050",
    "name": "Hamwarde",
    "population": 867,
    "populationMale": 420,
    "populationFemale": 447,
    "populationPerSquareKm": 130,
    "longitude": 10.421397,
    "latitude": 53.452847,
    "travelRegion": "übrig. Schleswig-Holstein",
    "urbanicity": "mittlere Besiedlungsdichte",
    "urbanicityCode": "02"
  },
  {
    "ags": "01053053",
    "name": "Hohenhorn",
    "population": 545,
    "populationMale": 277,
    "populationFemale": 268,
    "populationPerSquareKm": 79,
    "longitude": 10.367611,
    "latitude": 53.475734,
    "travelRegion": "übrig. Schleswig-Holstein",
    "urbanicity": "gering besiedelt",
    "urbanicityCode": "03"
  },
  {
    "ags": "01053072",
    "name": "Kröppelshagen-Fahrendorf",
    "population": 1330,
    "populationMale": 670,
    "populationFemale": 660,
    "populationPerSquareKm": 159,
    "longitude": 10.315197,
    "latitude": 53.488589,
    "travelRegion": "übrig. Schleswig-Holstein",
    "urbanicity": "gering besiedelt",
    "urbanicityCode": "03"
  },
  {
    "ags": "01053131",
    "name": "Wiershop",
    "population": 204,
    "populationMale": 105,
    "populationFemale": 99,
    "populationPerSquareKm": 40,
    "longitude": 10.451895,
    "latitude": 53.442501,
    "travelRegion": "übrig. Schleswig-Holstein",
    "urbanicity": "gering besiedelt",
    "urbanicityCode": "03"
  },
  {
    "ags": "01053133",
    "name": "Wohltorf",
    "population": 2398,
    "populationMale": 1174,
    "populationFemale": 1224,
    "populationPerSquareKm": 402,
    "longitude": 10.291254,
    "latitude": 53.517253,
    "travelRegion": "übrig. Schleswig-Holstein",
    "urbanicity": "mittlere Besiedlungsdichte",
    "urbanicityCode": "02"
  },
  {
    "ags": "01053135",
    "name": "Worth",
    "population": 189,
    "populationMale": 89,
    "populationFemale": 100,
    "populationPerSquareKm": 31,
    "longitude": 10.408431,
    "latitude": 53.467545,
    "travelRegion": "übrig. Schleswig-Holstein",
    "urbanicity": "gering besiedelt",
    "urbanicityCode": "03"
  },
  {
    "ags": "01053006",
    "name": "Basedow",
    "population": 653,
    "populationMale": 325,
    "populationFemale": 328,
    "populationPerSquareKm": 87,
    "longitude": 10.583592,
    "latitude": 53.416151,
    "travelRegion": "übrig. Schleswig-Holstein",
    "urbanicity": "gering besiedelt",
    "urbanicityCode": "03"
  },
  {
    "ags": "01053019",
    "name": "Buchhorst",
    "population": 140,
    "populationMale": 63,
    "populationFemale": 77,
    "populationPerSquareKm": 27,
    "longitude": 10.568335,
    "latitude": 53.384993,
    "travelRegion": "übrig. Schleswig-Holstein",
    "urbanicity": "gering besiedelt",
    "urbanicityCode": "03"
  },
  {
    "ags": "01053022",
    "name": "Dalldorf",
    "population": 349,
    "populationMale": 168,
    "populationFemale": 181,
    "populationPerSquareKm": 58,
    "longitude": 10.610487,
    "latitude": 53.435521,
    "travelRegion": "übrig. Schleswig-Holstein",
    "urbanicity": "gering besiedelt",
    "urbanicityCode": "03"
  },
  {
    "ags": "01053058",
    "name": "Juliusburg",
    "population": 170,
    "populationMale": 80,
    "populationFemale": 90,
    "populationPerSquareKm": 28,
    "longitude": 10.506484,
    "latitude": 53.41715,
    "travelRegion": "übrig. Schleswig-Holstein",
    "urbanicity": "gering besiedelt",
    "urbanicityCode": "03"
  },
  {
    "ags": "01053073",
    "name": "Krüzen",
    "population": 346,
    "populationMale": 171,
    "populationFemale": 175,
    "populationPerSquareKm": 42,
    "longitude": 10.527113,
    "latitude": 53.401518,
    "travelRegion": "übrig. Schleswig-Holstein",
    "urbanicity": "gering besiedelt",
    "urbanicityCode": "03"
  },
  {
    "ags": "01053074",
    "name": "Krukow",
    "population": 153,
    "populationMale": 75,
    "populationFemale": 78,
    "populationPerSquareKm": 19,
    "longitude": 10.478187,
    "latitude": 53.418864,
    "travelRegion": "übrig. Schleswig-Holstein",
    "urbanicity": "gering besiedelt",
    "urbanicityCode": "03"
  },
  {
    "ags": "01053082",
    "name": "Lanze",
    "population": 286,
    "populationMale": 153,
    "populationFemale": 133,
    "populationPerSquareKm": 32,
    "longitude": 10.604387,
    "latitude": 53.386341,
    "travelRegion": "übrig. Schleswig-Holstein",
    "urbanicity": "gering besiedelt",
    "urbanicityCode": "03"
  },
  {
    "ags": "01053087",
    "name": "Lütau",
    "population": 710,
    "populationMale": 358,
    "populationFemale": 352,
    "populationPerSquareKm": 63,
    "longitude": 10.545404,
    "latitude": 53.435861,
    "travelRegion": "übrig. Schleswig-Holstein",
    "urbanicity": "gering besiedelt",
    "urbanicityCode": "03"
  },
  {
    "ags": "01053111",
    "name": "Schnakenbek",
    "population": 874,
    "populationMale": 426,
    "populationFemale": 448,
    "populationPerSquareKm": 67,
    "longitude": 10.50018,
    "latitude": 53.385426,
    "travelRegion": "übrig. Schleswig-Holstein",
    "urbanicity": "gering besiedelt",
    "urbanicityCode": "03"
  },
  {
    "ags": "01053128",
    "name": "Wangelau",
    "population": 221,
    "populationMale": 109,
    "populationFemale": 112,
    "populationPerSquareKm": 34,
    "longitude": 10.546567,
    "latitude": 53.453726,
    "travelRegion": "übrig. Schleswig-Holstein",
    "urbanicity": "gering besiedelt",
    "urbanicityCode": "03"
  },
  {
    "ags": "01053001",
    "name": "Albsfelde",
    "population": 70,
    "populationMale": 34,
    "populationFemale": 36,
    "populationPerSquareKm": 17,
    "longitude": 10.694451,
    "latitude": 53.679957,
    "travelRegion": "übrig. Schleswig-Holstein",
    "urbanicity": "gering besiedelt",
    "urbanicityCode": "03"
  },
  {
    "ags": "01053004",
    "name": "Bäk",
    "population": 886,
    "populationMale": 423,
    "populationFemale": 463,
    "populationPerSquareKm": 206,
    "longitude": 10.787081,
    "latitude": 53.716345,
    "travelRegion": "übrig. Schleswig-Holstein",
    "urbanicity": "mittlere Besiedlungsdichte",
    "urbanicityCode": "02"
  },
  {
    "ags": "01053016",
    "name": "Brunsmark",
    "population": 156,
    "populationMale": 77,
    "populationFemale": 79,
    "populationPerSquareKm": 36,
    "longitude": 10.750236,
    "latitude": 53.617106,
    "travelRegion": "übrig. Schleswig-Holstein",
    "urbanicity": "gering besiedelt",
    "urbanicityCode": "03"
  },
  {
    "ags": "01053018",
    "name": "Buchholz",
    "population": 240,
    "populationMale": 123,
    "populationFemale": 117,
    "populationPerSquareKm": 82,
    "longitude": 10.745377,
    "latitude": 53.731393,
    "travelRegion": "übrig. Schleswig-Holstein",
    "urbanicity": "gering besiedelt",
    "urbanicityCode": "03"
  },
  {
    "ags": "01053026",
    "name": "Einhaus",
    "population": 421,
    "populationMale": 203,
    "populationFemale": 218,
    "populationPerSquareKm": 166,
    "longitude": 10.725697,
    "latitude": 53.714136,
    "travelRegion": "übrig. Schleswig-Holstein",
    "urbanicity": "mittlere Besiedlungsdichte",
    "urbanicityCode": "02"
  },
  {
    "ags": "01053030",
    "name": "Fredeburg",
    "population": 41,
    "populationMale": 21,
    "populationFemale": 20,
    "populationPerSquareKm": 4,
    "longitude": 10.72727,
    "latitude": 53.674253,
    "travelRegion": "übrig. Schleswig-Holstein",
    "urbanicity": "gering besiedelt",
    "urbanicityCode": "03"
  },
  {
    "ags": "01053033",
    "name": "Giesensdorf",
    "population": 150,
    "populationMale": 69,
    "populationFemale": 81,
    "populationPerSquareKm": 55,
    "longitude": 10.713651,
    "latitude": 53.688273,
    "travelRegion": "übrig. Schleswig-Holstein",
    "urbanicity": "gering besiedelt",
    "urbanicityCode": "03"
  },
  {
    "ags": "01053040",
    "name": "Groß Disnack",
    "population": 84,
    "populationMale": 41,
    "populationFemale": 43,
    "populationPerSquareKm": 14,
    "longitude": 10.69059,
    "latitude": 53.741974,
    "travelRegion": "übrig. Schleswig-Holstein",
    "urbanicity": "gering besiedelt",
    "urbanicityCode": "03"
  },
  {
    "ags": "01053041",
    "name": "Groß Grönau",
    "population": 3765,
    "populationMale": 1814,
    "populationFemale": 1951,
    "populationPerSquareKm": 768,
    "longitude": 10.750476,
    "latitude": 53.801387,
    "travelRegion": "übrig. Schleswig-Holstein",
    "urbanicity": "mittlere Besiedlungsdichte",
    "urbanicityCode": "02"
  },
  {
    "ags": "01053043",
    "name": "Groß Sarau",
    "population": 1013,
    "populationMale": 511,
    "populationFemale": 502,
    "populationPerSquareKm": 59,
    "longitude": 10.737415,
    "latitude": 53.771827,
    "travelRegion": "übrig. Schleswig-Holstein",
    "urbanicity": "gering besiedelt",
    "urbanicityCode": "03"
  },
  {
    "ags": "01053051",
    "name": "Harmsdorf",
    "population": 326,
    "populationMale": 172,
    "populationFemale": 154,
    "populationPerSquareKm": 91,
    "longitude": 10.725868,
    "latitude": 53.700407,
    "travelRegion": "übrig. Schleswig-Holstein",
    "urbanicity": "gering besiedelt",
    "urbanicityCode": "03"
  },
  {
    "ags": "01053054",
    "name": "Hollenbek",
    "population": 434,
    "populationMale": 235,
    "populationFemale": 199,
    "populationPerSquareKm": 60,
    "longitude": 10.819794,
    "latitude": 53.592298,
    "travelRegion": "übrig. Schleswig-Holstein",
    "urbanicity": "gering besiedelt",
    "urbanicityCode": "03"
  },
  {
    "ags": "01053057",
    "name": "Horst",
    "population": 207,
    "populationMale": 96,
    "populationFemale": 111,
    "populationPerSquareKm": 17,
    "longitude": 10.77065,
    "latitude": 53.638591,
    "travelRegion": "übrig. Schleswig-Holstein",
    "urbanicity": "gering besiedelt",
    "urbanicityCode": "03"
  },
  {
    "ags": "01053062",
    "name": "Kittlitz",
    "population": 255,
    "populationMale": 129,
    "populationFemale": 126,
    "populationPerSquareKm": 14,
    "longitude": 10.918244,
    "latitude": 53.664141,
    "travelRegion": "übrig. Schleswig-Holstein",
    "urbanicity": "gering besiedelt",
    "urbanicityCode": "03"
  },
  {
    "ags": "01053066",
    "name": "Klein Zecher",
    "population": 235,
    "populationMale": 115,
    "populationFemale": 120,
    "populationPerSquareKm": 26,
    "longitude": 10.872803,
    "latitude": 53.577413,
    "travelRegion": "übrig. Schleswig-Holstein",
    "urbanicity": "gering besiedelt",
    "urbanicityCode": "03"
  },
  {
    "ags": "01053078",
    "name": "Kulpin",
    "population": 201,
    "populationMale": 101,
    "populationFemale": 100,
    "populationPerSquareKm": 33,
    "longitude": 10.695812,
    "latitude": 53.71009,
    "travelRegion": "übrig. Schleswig-Holstein",
    "urbanicity": "gering besiedelt",
    "urbanicityCode": "03"
  },
  {
    "ags": "01053088",
    "name": "Mechow",
    "population": 127,
    "populationMale": 63,
    "populationFemale": 64,
    "populationPerSquareKm": 29,
    "longitude": 10.801815,
    "latitude": 53.717556,
    "travelRegion": "übrig. Schleswig-Holstein",
    "urbanicity": "gering besiedelt",
    "urbanicityCode": "03"
  },
  {
    "ags": "01053093",
    "name": "Mustin",
    "population": 734,
    "populationMale": 355,
    "populationFemale": 379,
    "populationPerSquareKm": 62,
    "longitude": 10.886235,
    "latitude": 53.68453,
    "travelRegion": "übrig. Schleswig-Holstein",
    "urbanicity": "gering besiedelt",
    "urbanicityCode": "03"
  },
  {
    "ags": "01053098",
    "name": "Pogeez",
    "population": 495,
    "populationMale": 245,
    "populationFemale": 250,
    "populationPerSquareKm": 110,
    "longitude": 10.729435,
    "latitude": 53.750929,
    "travelRegion": "übrig. Schleswig-Holstein",
    "urbanicity": "gering besiedelt",
    "urbanicityCode": "03"
  },
  {
    "ags": "01053102",
    "name": "Römnitz",
    "population": 58,
    "populationMale": 34,
    "populationFemale": 24,
    "populationPerSquareKm": 11,
    "longitude": 10.768957,
    "latitude": 53.710121,
    "travelRegion": "übrig. Schleswig-Holstein",
    "urbanicity": "gering besiedelt",
    "urbanicityCode": "03"
  },
  {
    "ags": "01053107",
    "name": "Salem",
    "population": 638,
    "populationMale": 309,
    "populationFemale": 329,
    "populationPerSquareKm": 25,
    "longitude": 10.827965,
    "latitude": 53.656405,
    "travelRegion": "übrig. Schleswig-Holstein",
    "urbanicity": "gering besiedelt",
    "urbanicityCode": "03"
  },
  {
    "ags": "01053110",
    "name": "Schmilau",
    "population": 563,
    "populationMale": 281,
    "populationFemale": 282,
    "populationPerSquareKm": 49,
    "longitude": 10.75597,
    "latitude": 53.664589,
    "travelRegion": "übrig. Schleswig-Holstein",
    "urbanicity": "gering besiedelt",
    "urbanicityCode": "03"
  },
  {
    "ags": "01053117",
    "name": "Seedorf",
    "population": 501,
    "populationMale": 251,
    "populationFemale": 250,
    "populationPerSquareKm": 18,
    "longitude": 10.866858,
    "latitude": 53.619223,
    "travelRegion": "übrig. Schleswig-Holstein",
    "urbanicity": "gering besiedelt",
    "urbanicityCode": "03"
  },
  {
    "ags": "01053123",
    "name": "Sterley",
    "population": 932,
    "populationMale": 460,
    "populationFemale": 472,
    "populationPerSquareKm": 44,
    "longitude": 10.817631,
    "latitude": 53.620115,
    "travelRegion": "übrig. Schleswig-Holstein",
    "urbanicity": "gering besiedelt",
    "urbanicityCode": "03"
  },
  {
    "ags": "01053136",
    "name": "Ziethen",
    "population": 1124,
    "populationMale": 539,
    "populationFemale": 585,
    "populationPerSquareKm": 101,
    "longitude": 10.809322,
    "latitude": 53.693695,
    "travelRegion": "übrig. Schleswig-Holstein",
    "urbanicity": "mittlere Besiedlungsdichte",
    "urbanicityCode": "02"
  },
  {
    "ags": "01053007",
    "name": "Basthorst",
    "population": 418,
    "populationMale": 209,
    "populationFemale": 209,
    "populationPerSquareKm": 39,
    "longitude": 10.47139,
    "latitude": 53.576616,
    "travelRegion": "übrig. Schleswig-Holstein",
    "urbanicity": "gering besiedelt",
    "urbanicityCode": "03"
  },
  {
    "ags": "01053017",
    "name": "Brunstorf",
    "population": 738,
    "populationMale": 379,
    "populationFemale": 359,
    "populationPerSquareKm": 54,
    "longitude": 10.425938,
    "latitude": 53.491554,
    "travelRegion": "übrig. Schleswig-Holstein",
    "urbanicity": "gering besiedelt",
    "urbanicityCode": "03"
  },
  {
    "ags": "01053021",
    "name": "Dahmker",
    "population": 139,
    "populationMale": 70,
    "populationFemale": 69,
    "populationPerSquareKm": 68,
    "longitude": 10.444516,
    "latitude": 53.587821,
    "travelRegion": "übrig. Schleswig-Holstein",
    "urbanicity": "gering besiedelt",
    "urbanicityCode": "03"
  },
  {
    "ags": "01053027",
    "name": "Elmenhorst",
    "population": 844,
    "populationMale": 445,
    "populationFemale": 399,
    "populationPerSquareKm": 65,
    "longitude": 10.537551,
    "latitude": 53.544876,
    "travelRegion": "übrig. Schleswig-Holstein",
    "urbanicity": "gering besiedelt",
    "urbanicityCode": "03"
  },
  {
    "ags": "01053031",
    "name": "Fuhlenhagen",
    "population": 386,
    "populationMale": 216,
    "populationFemale": 170,
    "populationPerSquareKm": 67,
    "longitude": 10.5266,
    "latitude": 53.572959,
    "travelRegion": "übrig. Schleswig-Holstein",
    "urbanicity": "gering besiedelt",
    "urbanicityCode": "03"
  },
  {
    "ags": "01053036",
    "name": "Grabau",
    "population": 349,
    "populationMale": 174,
    "populationFemale": 175,
    "populationPerSquareKm": 85,
    "longitude": 10.519825,
    "latitude": 53.513609,
    "travelRegion": "übrig. Schleswig-Holstein",
    "urbanicity": "mittlere Besiedlungsdichte",
    "urbanicityCode": "02"
  },
  {
    "ags": "01053042",
    "name": "Groß Pampau",
    "population": 149,
    "populationMale": 70,
    "populationFemale": 79,
    "populationPerSquareKm": 35,
    "longitude": 10.560301,
    "latitude": 53.521808,
    "travelRegion": "übrig. Schleswig-Holstein",
    "urbanicity": "gering besiedelt",
    "urbanicityCode": "03"
  },
  {
    "ags": "01053045",
    "name": "Grove",
    "population": 236,
    "populationMale": 115,
    "populationFemale": 121,
    "populationPerSquareKm": 45,
    "longitude": 10.492067,
    "latitude": 53.528123,
    "travelRegion": "übrig. Schleswig-Holstein",
    "urbanicity": "gering besiedelt",
    "urbanicityCode": "03"
  },
  {
    "ags": "01053047",
    "name": "Gülzow",
    "population": 1313,
    "populationMale": 676,
    "populationFemale": 637,
    "populationPerSquareKm": 77,
    "longitude": 10.490939,
    "latitude": 53.442249,
    "travelRegion": "übrig. Schleswig-Holstein",
    "urbanicity": "gering besiedelt",
    "urbanicityCode": "03"
  },
  {
    "ags": "01053049",
    "name": "Hamfelde",
    "population": 500,
    "populationMale": 228,
    "populationFemale": 272,
    "populationPerSquareKm": 144,
    "longitude": 10.44893,
    "latitude": 53.597194,
    "travelRegion": "übrig. Schleswig-Holstein",
    "urbanicity": "gering besiedelt",
    "urbanicityCode": "03"
  },
  {
    "ags": "01053052",
    "name": "Havekost",
    "population": 184,
    "populationMale": 88,
    "populationFemale": 96,
    "populationPerSquareKm": 31,
    "longitude": 10.473088,
    "latitude": 53.539918,
    "travelRegion": "übrig. Schleswig-Holstein",
    "urbanicity": "gering besiedelt",
    "urbanicityCode": "03"
  },
  {
    "ags": "01053059",
    "name": "Kankelau",
    "population": 224,
    "populationMale": 113,
    "populationFemale": 111,
    "populationPerSquareKm": 53,
    "longitude": 10.56832,
    "latitude": 53.549311,
    "travelRegion": "übrig. Schleswig-Holstein",
    "urbanicity": "gering besiedelt",
    "urbanicityCode": "03"
  },
  {
    "ags": "01053060",
    "name": "Kasseburg",
    "population": 578,
    "populationMale": 282,
    "populationFemale": 296,
    "populationPerSquareKm": 73,
    "longitude": 10.415399,
    "latitude": 53.567213,
    "travelRegion": "übrig. Schleswig-Holstein",
    "urbanicity": "gering besiedelt",
    "urbanicityCode": "03"
  },
  {
    "ags": "01053070",
    "name": "Köthel",
    "population": 262,
    "populationMale": 133,
    "populationFemale": 129,
    "populationPerSquareKm": 172,
    "longitude": 10.510002,
    "latitude": 53.606936,
    "travelRegion": "übrig. Schleswig-Holstein",
    "urbanicity": "gering besiedelt",
    "urbanicityCode": "03"
  },
  {
    "ags": "01053071",
    "name": "Kollow",
    "population": 609,
    "populationMale": 297,
    "populationFemale": 312,
    "populationPerSquareKm": 74,
    "longitude": 10.458784,
    "latitude": 53.463155,
    "travelRegion": "übrig. Schleswig-Holstein",
    "urbanicity": "gering besiedelt",
    "urbanicityCode": "03"
  },
  {
    "ags": "01053076",
    "name": "Kuddewörde",
    "population": 1372,
    "populationMale": 665,
    "populationFemale": 707,
    "populationPerSquareKm": 187,
    "longitude": 10.401901,
    "latitude": 53.587291,
    "travelRegion": "übrig. Schleswig-Holstein",
    "urbanicity": "gering besiedelt",
    "urbanicityCode": "03"
  },
  {
    "ags": "01053089",
    "name": "Möhnsen",
    "population": 538,
    "populationMale": 278,
    "populationFemale": 260,
    "populationPerSquareKm": 72,
    "longitude": 10.469197,
    "latitude": 53.559974,
    "travelRegion": "übrig. Schleswig-Holstein",
    "urbanicity": "gering besiedelt",
    "urbanicityCode": "03"
  },
  {
    "ags": "01053091",
    "name": "Mühlenrade",
    "population": 177,
    "populationMale": 90,
    "populationFemale": 87,
    "populationPerSquareKm": 47,
    "longitude": 10.48775,
    "latitude": 53.595838,
    "travelRegion": "übrig. Schleswig-Holstein",
    "urbanicity": "gering besiedelt",
    "urbanicityCode": "03"
  },
  {
    "ags": "01053106",
    "name": "Sahms",
    "population": 402,
    "populationMale": 199,
    "populationFemale": 203,
    "populationPerSquareKm": 68,
    "longitude": 10.532723,
    "latitude": 53.525807,
    "travelRegion": "übrig. Schleswig-Holstein",
    "urbanicity": "gering besiedelt",
    "urbanicityCode": "03"
  },
  {
    "ags": "01053025",
    "name": "Duvensee",
    "population": 549,
    "populationMale": 264,
    "populationFemale": 285,
    "populationPerSquareKm": 44,
    "longitude": 10.568351,
    "latitude": 53.693029,
    "travelRegion": "übrig. Schleswig-Holstein",
    "urbanicity": "gering besiedelt",
    "urbanicityCode": "03"
  },
  {
    "ags": "01053038",
    "name": "Grinau",
    "population": 296,
    "populationMale": 148,
    "populationFemale": 148,
    "populationPerSquareKm": 108,
    "longitude": 10.549505,
    "latitude": 53.775447,
    "travelRegion": "übrig. Schleswig-Holstein",
    "urbanicity": "gering besiedelt",
    "urbanicityCode": "03"
  },
  {
    "ags": "01053039",
    "name": "Groß Boden",
    "population": 209,
    "populationMale": 108,
    "populationFemale": 101,
    "populationPerSquareKm": 77,
    "longitude": 10.452871,
    "latitude": 53.752722,
    "travelRegion": "übrig. Schleswig-Holstein",
    "urbanicity": "gering besiedelt",
    "urbanicityCode": "03"
  },
  {
    "ags": "01053044",
    "name": "Groß Schenkenberg",
    "population": 570,
    "populationMale": 275,
    "populationFemale": 295,
    "populationPerSquareKm": 87,
    "longitude": 10.56488,
    "latitude": 53.793492,
    "travelRegion": "übrig. Schleswig-Holstein",
    "urbanicity": "gering besiedelt",
    "urbanicityCode": "03"
  },
  {
    "ags": "01053068",
    "name": "Klinkrade",
    "population": 604,
    "populationMale": 288,
    "populationFemale": 316,
    "populationPerSquareKm": 82,
    "longitude": 10.55033,
    "latitude": 53.716092,
    "travelRegion": "übrig. Schleswig-Holstein",
    "urbanicity": "gering besiedelt",
    "urbanicityCode": "03"
  },
  {
    "ags": "01053069",
    "name": "Koberg",
    "population": 783,
    "populationMale": 408,
    "populationFemale": 375,
    "populationPerSquareKm": 65,
    "longitude": 10.52596,
    "latitude": 53.639594,
    "travelRegion": "übrig. Schleswig-Holstein",
    "urbanicity": "gering besiedelt",
    "urbanicityCode": "03"
  },
  {
    "ags": "01053077",
    "name": "Kühsen",
    "population": 375,
    "populationMale": 187,
    "populationFemale": 188,
    "populationPerSquareKm": 52,
    "longitude": 10.615824,
    "latitude": 53.682661,
    "travelRegion": "übrig. Schleswig-Holstein",
    "urbanicity": "gering besiedelt",
    "urbanicityCode": "03"
  },
  {
    "ags": "01053079",
    "name": "Labenz",
    "population": 852,
    "populationMale": 438,
    "populationFemale": 414,
    "populationPerSquareKm": 148,
    "longitude": 10.524596,
    "latitude": 53.708352,
    "travelRegion": "übrig. Schleswig-Holstein",
    "urbanicity": "gering besiedelt",
    "urbanicityCode": "03"
  },
  {
    "ags": "01053081",
    "name": "Lankau",
    "population": 470,
    "populationMale": 244,
    "populationFemale": 226,
    "populationPerSquareKm": 25,
    "longitude": 10.665636,
    "latitude": 53.667879,
    "travelRegion": "übrig. Schleswig-Holstein",
    "urbanicity": "gering besiedelt",
    "urbanicityCode": "03"
  },
  {
    "ags": "01053085",
    "name": "Linau",
    "population": 1252,
    "populationMale": 631,
    "populationFemale": 621,
    "populationPerSquareKm": 130,
    "longitude": 10.46755,
    "latitude": 53.643933,
    "travelRegion": "übrig. Schleswig-Holstein",
    "urbanicity": "gering besiedelt",
    "urbanicityCode": "03"
  },
  {
    "ags": "01053086",
    "name": "Lüchow",
    "population": 276,
    "populationMale": 137,
    "populationFemale": 139,
    "populationPerSquareKm": 60,
    "longitude": 10.529518,
    "latitude": 53.690744,
    "travelRegion": "übrig. Schleswig-Holstein",
    "urbanicity": "gering besiedelt",
    "urbanicityCode": "03"
  },
  {
    "ags": "01053096",
    "name": "Nusse",
    "population": 1135,
    "populationMale": 558,
    "populationFemale": 577,
    "populationPerSquareKm": 182,
    "longitude": 10.575979,
    "latitude": 53.65908,
    "travelRegion": "übrig. Schleswig-Holstein",
    "urbanicity": "gering besiedelt",
    "urbanicityCode": "03"
  },
  {
    "ags": "01053097",
    "name": "Panten",
    "population": 654,
    "populationMale": 315,
    "populationFemale": 339,
    "populationPerSquareKm": 47,
    "longitude": 10.61977,
    "latitude": 53.664571,
    "travelRegion": "übrig. Schleswig-Holstein",
    "urbanicity": "gering besiedelt",
    "urbanicityCode": "03"
  },
  {
    "ags": "01053099",
    "name": "Poggensee",
    "population": 351,
    "populationMale": 177,
    "populationFemale": 174,
    "populationPerSquareKm": 65,
    "longitude": 10.579484,
    "latitude": 53.640102,
    "travelRegion": "übrig. Schleswig-Holstein",
    "urbanicity": "gering besiedelt",
    "urbanicityCode": "03"
  },
  {
    "ags": "01053101",
    "name": "Ritzerau",
    "population": 295,
    "populationMale": 148,
    "populationFemale": 147,
    "populationPerSquareKm": 27,
    "longitude": 10.567545,
    "latitude": 53.663003,
    "travelRegion": "übrig. Schleswig-Holstein",
    "urbanicity": "gering besiedelt",
    "urbanicityCode": "03"
  },
  {
    "ags": "01053108",
    "name": "Sandesneben",
    "population": 1859,
    "populationMale": 930,
    "populationFemale": 929,
    "populationPerSquareKm": 303,
    "longitude": 10.496793,
    "latitude": 53.68797,
    "travelRegion": "übrig. Schleswig-Holstein",
    "urbanicity": "gering besiedelt",
    "urbanicityCode": "03"
  },
  {
    "ags": "01053109",
    "name": "Schiphorst",
    "population": 642,
    "populationMale": 314,
    "populationFemale": 328,
    "populationPerSquareKm": 79,
    "longitude": 10.461627,
    "latitude": 53.708361,
    "travelRegion": "übrig. Schleswig-Holstein",
    "urbanicity": "gering besiedelt",
    "urbanicityCode": "03"
  },
  {
    "ags": "01053112",
    "name": "Schönberg",
    "population": 1366,
    "populationMale": 698,
    "populationFemale": 668,
    "populationPerSquareKm": 92,
    "longitude": 10.433054,
    "latitude": 53.677154,
    "travelRegion": "übrig. Schleswig-Holstein",
    "urbanicity": "gering besiedelt",
    "urbanicityCode": "03"
  },
  {
    "ags": "01053114",
    "name": "Schürensöhlen",
    "population": 158,
    "populationMale": 79,
    "populationFemale": 79,
    "populationPerSquareKm": 57,
    "longitude": 10.47204,
    "latitude": 53.763455,
    "travelRegion": "übrig. Schleswig-Holstein",
    "urbanicity": "gering besiedelt",
    "urbanicityCode": "03"
  },
  {
    "ags": "01053118",
    "name": "Siebenbäumen",
    "population": 606,
    "populationMale": 318,
    "populationFemale": 288,
    "populationPerSquareKm": 69,
    "longitude": 10.525162,
    "latitude": 53.749557,
    "travelRegion": "übrig. Schleswig-Holstein",
    "urbanicity": "gering besiedelt",
    "urbanicityCode": "03"
  },
  {
    "ags": "01053121",
    "name": "Sirksfelde",
    "population": 338,
    "populationMale": 170,
    "populationFemale": 168,
    "populationPerSquareKm": 39,
    "longitude": 10.509773,
    "latitude": 53.66533,
    "travelRegion": "übrig. Schleswig-Holstein",
    "urbanicity": "gering besiedelt",
    "urbanicityCode": "03"
  },
  {
    "ags": "01053122",
    "name": "Steinhorst",
    "population": 554,
    "populationMale": 286,
    "populationFemale": 268,
    "populationPerSquareKm": 34,
    "longitude": 10.48343,
    "latitude": 53.719989,
    "travelRegion": "übrig. Schleswig-Holstein",
    "urbanicity": "gering besiedelt",
    "urbanicityCode": "03"
  },
  {
    "ags": "01053124",
    "name": "Stubben",
    "population": 386,
    "populationMale": 188,
    "populationFemale": 198,
    "populationPerSquareKm": 72,
    "longitude": 10.43068,
    "latitude": 53.732928,
    "travelRegion": "übrig. Schleswig-Holstein",
    "urbanicity": "gering besiedelt",
    "urbanicityCode": "03"
  },
  {
    "ags": "01053127",
    "name": "Walksfelde",
    "population": 235,
    "populationMale": 124,
    "populationFemale": 111,
    "populationPerSquareKm": 67,
    "longitude": 10.575101,
    "latitude": 53.631901,
    "travelRegion": "übrig. Schleswig-Holstein",
    "urbanicity": "gering besiedelt",
    "urbanicityCode": "03"
  },
  {
    "ags": "01053130",
    "name": "Wentorf (Amt Sandesneben)",
    "population": 732,
    "populationMale": 370,
    "populationFemale": 362,
    "populationPerSquareKm": 147,
    "longitude": 10.474911,
    "latitude": 53.67663,
    "travelRegion": "übrig. Schleswig-Holstein",
    "urbanicity": "gering besiedelt",
    "urbanicityCode": "03"
  },
  {
    "ags": "01054033",
    "name": "Friedrichstadt, Stadt",
    "population": 2653,
    "populationMale": 1254,
    "populationFemale": 1399,
    "populationPerSquareKm": 660,
    "longitude": 9.087943,
    "latitude": 54.37346,
    "travelRegion": "übrig. Schleswig-Holstein",
    "urbanicity": "gering besiedelt",
    "urbanicityCode": "03"
  },
  {
    "ags": "01054056",
    "name": "Husum, Stadt",
    "population": 23189,
    "populationMale": 11132,
    "populationFemale": 12057,
    "populationPerSquareKm": 899,
    "longitude": 9.057178,
    "latitude": 54.477143,
    "travelRegion": "Nordsee",
    "urbanicity": "mittlere Besiedlungsdichte",
    "urbanicityCode": "02"
  },
  {
    "ags": "01054108",
    "name": "Reußenköge",
    "population": 324,
    "populationMale": 171,
    "populationFemale": 153,
    "populationPerSquareKm": 7,
    "longitude": 8.883096,
    "latitude": 54.620428,
    "travelRegion": "Nordsee",
    "urbanicity": "gering besiedelt",
    "urbanicityCode": "03"
  },
  {
    "ags": "01054138",
    "name": "Tönning, Stadt",
    "population": 4984,
    "populationMale": 2475,
    "populationFemale": 2509,
    "populationPerSquareKm": 112,
    "longitude": 8.941868,
    "latitude": 54.31662,
    "travelRegion": "Nordsee",
    "urbanicity": "gering besiedelt",
    "urbanicityCode": "03"
  },
  {
    "ags": "01054168",
    "name": "Sylt",
    "population": 13689,
    "populationMale": 6655,
    "populationFemale": 7034,
    "populationPerSquareKm": 239,
    "longitude": 8.30875,
    "latitude": 54.90786,
    "travelRegion": "Nordsee",
    "urbanicity": "mittlere Besiedlungsdichte",
    "urbanicityCode": "02"
  },
  {
    "ags": "01054035",
    "name": "Garding, Kirchspiel",
    "population": 277,
    "populationMale": 131,
    "populationFemale": 146,
    "populationPerSquareKm": 19,
    "longitude": 8.78356,
    "latitude": 54.317383,
    "travelRegion": "Nordsee",
    "urbanicity": "gering besiedelt",
    "urbanicityCode": "03"
  },
  {
    "ags": "01054036",
    "name": "Garding, Stadt",
    "population": 2818,
    "populationMale": 1350,
    "populationFemale": 1468,
    "populationPerSquareKm": 921,
    "longitude": 8.778217,
    "latitude": 54.327962,
    "travelRegion": "Nordsee",
    "urbanicity": "gering besiedelt",
    "urbanicityCode": "03"
  },
  {
    "ags": "01054040",
    "name": "Grothusenkoog",
    "population": 21,
    "populationMale": 10,
    "populationFemale": 11,
    "populationPerSquareKm": 6,
    "longitude": 8.759033,
    "latitude": 54.302739,
    "travelRegion": "Nordsee",
    "urbanicity": "gering besiedelt",
    "urbanicityCode": "03"
  },
  {
    "ags": "01054063",
    "name": "Katharinenheerd",
    "population": 175,
    "populationMale": 83,
    "populationFemale": 92,
    "populationPerSquareKm": 21,
    "longitude": 8.828074,
    "latitude": 54.335199,
    "travelRegion": "Nordsee",
    "urbanicity": "gering besiedelt",
    "urbanicityCode": "03"
  },
  {
    "ags": "01054072",
    "name": "Kotzenbüll",
    "population": 200,
    "populationMale": 103,
    "populationFemale": 97,
    "populationPerSquareKm": 26,
    "longitude": 8.907487,
    "latitude": 54.333778,
    "travelRegion": "Nordsee",
    "urbanicity": "gering besiedelt",
    "urbanicityCode": "03"
  },
  {
    "ags": "01054090",
    "name": "Norderfriedrichskoog",
    "population": 40,
    "populationMale": 23,
    "populationFemale": 17,
    "populationPerSquareKm": 8,
    "longitude": 8.893583,
    "latitude": 54.400271,
    "travelRegion": "Nordsee",
    "urbanicity": "gering besiedelt",
    "urbanicityCode": "03"
  },
  {
    "ags": "01054095",
    "name": "Oldenswort",
    "population": 1250,
    "populationMale": 618,
    "populationFemale": 632,
    "populationPerSquareKm": 27,
    "longitude": 8.942989,
    "latitude": 54.372281,
    "travelRegion": "übrig. Schleswig-Holstein",
    "urbanicity": "gering besiedelt",
    "urbanicityCode": "03"
  },
  {
    "ags": "01054100",
    "name": "Osterhever",
    "population": 204,
    "populationMale": 100,
    "populationFemale": 104,
    "populationPerSquareKm": 11,
    "longitude": 8.765219,
    "latitude": 54.385302,
    "travelRegion": "Nordsee",
    "urbanicity": "gering besiedelt",
    "urbanicityCode": "03"
  },
  {
    "ags": "01054104",
    "name": "Poppenbüll",
    "population": 229,
    "populationMale": 123,
    "populationFemale": 106,
    "populationPerSquareKm": 15,
    "longitude": 8.761168,
    "latitude": 54.361585,
    "travelRegion": "Nordsee",
    "urbanicity": "gering besiedelt",
    "urbanicityCode": "03"
  },
  {
    "ags": "01054113",
    "name": "Sankt Peter-Ording",
    "population": 3997,
    "populationMale": 1876,
    "populationFemale": 2121,
    "populationPerSquareKm": 141,
    "longitude": 8.640495,
    "latitude": 54.302281,
    "travelRegion": "Nordsee",
    "urbanicity": "gering besiedelt",
    "urbanicityCode": "03"
  },
  {
    "ags": "01054134",
    "name": "Tating",
    "population": 958,
    "populationMale": 477,
    "populationFemale": 481,
    "populationPerSquareKm": 32,
    "longitude": 8.708512,
    "latitude": 54.325497,
    "travelRegion": "Nordsee",
    "urbanicity": "gering besiedelt",
    "urbanicityCode": "03"
  },
  {
    "ags": "01054135",
    "name": "Tetenbüll",
    "population": 587,
    "populationMale": 281,
    "populationFemale": 306,
    "populationPerSquareKm": 16,
    "longitude": 8.828234,
    "latitude": 54.352013,
    "travelRegion": "Nordsee",
    "urbanicity": "gering besiedelt",
    "urbanicityCode": "03"
  },
  {
    "ags": "01054140",
    "name": "Tümlauer Koog",
    "population": 106,
    "populationMale": 57,
    "populationFemale": 49,
    "populationPerSquareKm": 17,
    "longitude": 8.689757,
    "latitude": 54.348337,
    "travelRegion": "Nordsee",
    "urbanicity": "gering besiedelt",
    "urbanicityCode": "03"
  },
  {
    "ags": "01054145",
    "name": "Vollerwiek",
    "population": 219,
    "populationMale": 114,
    "populationFemale": 105,
    "populationPerSquareKm": 47,
    "longitude": 8.794694,
    "latitude": 54.290681,
    "travelRegion": "Nordsee",
    "urbanicity": "gering besiedelt",
    "urbanicityCode": "03"
  },
  {
    "ags": "01054148",
    "name": "Welt",
    "population": 198,
    "populationMale": 90,
    "populationFemale": 108,
    "populationPerSquareKm": 24,
    "longitude": 8.79406,
    "latitude": 54.302402,
    "travelRegion": "Nordsee",
    "urbanicity": "gering besiedelt",
    "urbanicityCode": "03"
  },
  {
    "ags": "01054150",
    "name": "Westerhever",
    "population": 94,
    "populationMale": 43,
    "populationFemale": 51,
    "populationPerSquareKm": 7,
    "longitude": 8.67563,
    "latitude": 54.382315,
    "travelRegion": "Nordsee",
    "urbanicity": "gering besiedelt",
    "urbanicityCode": "03"
  },
  {
    "ags": "01054046",
    "name": "Hörnum (Sylt)",
    "population": 893,
    "populationMale": 470,
    "populationFemale": 423,
    "populationPerSquareKm": 158,
    "longitude": 8.287218,
    "latitude": 54.756098,
    "travelRegion": "Nordsee",
    "urbanicity": "gering besiedelt",
    "urbanicityCode": "03"
  },
  {
    "ags": "01054061",
    "name": "Kampen (Sylt)",
    "population": 461,
    "populationMale": 228,
    "populationFemale": 233,
    "populationPerSquareKm": 55,
    "longitude": 8.342294,
    "latitude": 54.955508,
    "travelRegion": "Nordsee",
    "urbanicity": "gering besiedelt",
    "urbanicityCode": "03"
  },
  {
    "ags": "01054078",
    "name": "List auf Sylt",
    "population": 1493,
    "populationMale": 761,
    "populationFemale": 732,
    "populationPerSquareKm": 81,
    "longitude": 8.436183,
    "latitude": 55.020026,
    "travelRegion": "Nordsee",
    "urbanicity": "gering besiedelt",
    "urbanicityCode": "03"
  },
  {
    "ags": "01054149",
    "name": "Wenningstedt-Braderup (Sylt)",
    "population": 1582,
    "populationMale": 782,
    "populationFemale": 800,
    "populationPerSquareKm": 257,
    "longitude": 8.319785,
    "latitude": 54.931063,
    "travelRegion": "Nordsee",
    "urbanicity": "mittlere Besiedlungsdichte",
    "urbanicityCode": "02"
  },
  {
    "ags": "01054003",
    "name": "Ahrenviöl",
    "population": 518,
    "populationMale": 273,
    "populationFemale": 245,
    "populationPerSquareKm": 51,
    "longitude": 9.206895,
    "latitude": 54.531254,
    "travelRegion": "übrig. Schleswig-Holstein",
    "urbanicity": "gering besiedelt",
    "urbanicityCode": "03"
  },
  {
    "ags": "01054004",
    "name": "Ahrenviölfeld",
    "population": 220,
    "populationMale": 102,
    "populationFemale": 118,
    "populationPerSquareKm": 30,
    "longitude": 9.274084,
    "latitude": 54.534607,
    "travelRegion": "übrig. Schleswig-Holstein",
    "urbanicity": "gering besiedelt",
    "urbanicityCode": "03"
  },
  {
    "ags": "01054011",
    "name": "Behrendorf",
    "population": 551,
    "populationMale": 292,
    "populationFemale": 259,
    "populationPerSquareKm": 36,
    "longitude": 9.22759,
    "latitude": 54.562059,
    "travelRegion": "übrig. Schleswig-Holstein",
    "urbanicity": "gering besiedelt",
    "urbanicityCode": "03"
  },
  {
    "ags": "01054013",
    "name": "Bondelum",
    "population": 158,
    "populationMale": 86,
    "populationFemale": 72,
    "populationPerSquareKm": 17,
    "longitude": 9.26682,
    "latitude": 54.556555,
    "travelRegion": "übrig. Schleswig-Holstein",
    "urbanicity": "gering besiedelt",
    "urbanicityCode": "03"
  },
  {
    "ags": "01054041",
    "name": "Haselund",
    "population": 882,
    "populationMale": 457,
    "populationFemale": 425,
    "populationPerSquareKm": 69,
    "longitude": 9.182961,
    "latitude": 54.591683,
    "travelRegion": "übrig. Schleswig-Holstein",
    "urbanicity": "gering besiedelt",
    "urbanicityCode": "03"
  },
  {
    "ags": "01054057",
    "name": "Immenstedt",
    "population": 634,
    "populationMale": 317,
    "populationFemale": 317,
    "populationPerSquareKm": 43,
    "longitude": 9.162503,
    "latitude": 54.541449,
    "travelRegion": "übrig. Schleswig-Holstein",
    "urbanicity": "gering besiedelt",
    "urbanicityCode": "03"
  },
  {
    "ags": "01054079",
    "name": "Löwenstedt",
    "population": 669,
    "populationMale": 346,
    "populationFemale": 323,
    "populationPerSquareKm": 34,
    "longitude": 9.174887,
    "latitude": 54.621612,
    "travelRegion": "übrig. Schleswig-Holstein",
    "urbanicity": "gering besiedelt",
    "urbanicityCode": "03"
  },
  {
    "ags": "01054092",
    "name": "Norstedt",
    "population": 410,
    "populationMale": 210,
    "populationFemale": 200,
    "populationPerSquareKm": 30,
    "longitude": 9.129313,
    "latitude": 54.588429,
    "travelRegion": "übrig. Schleswig-Holstein",
    "urbanicity": "gering besiedelt",
    "urbanicityCode": "03"
  },
  {
    "ags": "01054101",
    "name": "Oster-Ohrstedt",
    "population": 632,
    "populationMale": 321,
    "populationFemale": 311,
    "populationPerSquareKm": 56,
    "longitude": 9.227445,
    "latitude": 54.514539,
    "travelRegion": "übrig. Schleswig-Holstein",
    "urbanicity": "gering besiedelt",
    "urbanicityCode": "03"
  },
  {
    "ags": "01054118",
    "name": "Schwesing",
    "population": 956,
    "populationMale": 490,
    "populationFemale": 466,
    "populationPerSquareKm": 61,
    "longitude": 9.134622,
    "latitude": 54.493899,
    "travelRegion": "übrig. Schleswig-Holstein",
    "urbanicity": "gering besiedelt",
    "urbanicityCode": "03"
  },
  {
    "ags": "01054123",
    "name": "Sollwitt",
    "population": 285,
    "populationMale": 151,
    "populationFemale": 134,
    "populationPerSquareKm": 26,
    "longitude": 9.228482,
    "latitude": 54.594606,
    "travelRegion": "übrig. Schleswig-Holstein",
    "urbanicity": "gering besiedelt",
    "urbanicityCode": "03"
  },
  {
    "ags": "01054144",
    "name": "Viöl",
    "population": 2223,
    "populationMale": 1080,
    "populationFemale": 1143,
    "populationPerSquareKm": 117,
    "longitude": 9.180557,
    "latitude": 54.568875,
    "travelRegion": "übrig. Schleswig-Holstein",
    "urbanicity": "gering besiedelt",
    "urbanicityCode": "03"
  },
  {
    "ags": "01054152",
    "name": "Wester-Ohrstedt",
    "population": 1035,
    "populationMale": 525,
    "populationFemale": 510,
    "populationPerSquareKm": 56,
    "longitude": 9.190063,
    "latitude": 54.507226,
    "travelRegion": "übrig. Schleswig-Holstein",
    "urbanicity": "gering besiedelt",
    "urbanicityCode": "03"
  },
  {
    "ags": "01054039",
    "name": "Gröde",
    "population": 10,
    "populationMale": 5,
    "populationFemale": 5,
    "populationPerSquareKm": 4,
    "longitude": 8.717443,
    "latitude": 54.631686,
    "travelRegion": "Nordsee",
    "urbanicity": "gering besiedelt",
    "urbanicityCode": "03"
  },
  {
    "ags": "01054050",
    "name": "Hallig Hooge",
    "population": 103,
    "populationMale": 50,
    "populationFemale": 53,
    "populationPerSquareKm": 18,
    "longitude": 8.550938,
    "latitude": 54.566389,
    "travelRegion": "Nordsee",
    "urbanicity": "gering besiedelt",
    "urbanicityCode": "03"
  },
  {
    "ags": "01054074",
    "name": "Langeneß",
    "population": 138,
    "populationMale": 72,
    "populationFemale": 66,
    "populationPerSquareKm": 12,
    "longitude": 8.594129,
    "latitude": 54.637917,
    "travelRegion": "Nordsee",
    "urbanicity": "gering besiedelt",
    "urbanicityCode": "03"
  },
  {
    "ags": "01054103",
    "name": "Pellworm",
    "population": 1163,
    "populationMale": 564,
    "populationFemale": 599,
    "populationPerSquareKm": 31,
    "longitude": 8.686238,
    "latitude": 54.518632,
    "travelRegion": "Nordsee",
    "urbanicity": "gering besiedelt",
    "urbanicityCode": "03"
  },
  {
    "ags": "01054005",
    "name": "Alkersum",
    "population": 391,
    "populationMale": 187,
    "populationFemale": 204,
    "populationPerSquareKm": 43,
    "longitude": 8.511244,
    "latitude": 54.708245,
    "travelRegion": "Nordsee",
    "urbanicity": "gering besiedelt",
    "urbanicityCode": "03"
  },
  {
    "ags": "01054015",
    "name": "Borgsum",
    "population": 336,
    "populationMale": 166,
    "populationFemale": 170,
    "populationPerSquareKm": 61,
    "longitude": 8.460009,
    "latitude": 54.699989,
    "travelRegion": "Nordsee",
    "urbanicity": "gering besiedelt",
    "urbanicityCode": "03"
  },
  {
    "ags": "01054025",
    "name": "Dunsum",
    "population": 65,
    "populationMale": 31,
    "populationFemale": 34,
    "populationPerSquareKm": 24,
    "longitude": 8.414572,
    "latitude": 54.730715,
    "travelRegion": "Nordsee",
    "urbanicity": "gering besiedelt",
    "urbanicityCode": "03"
  },